Type,City,Country,Latitude,Longitude
destination charger,Nipigon,Canada,49.016449,-88.311198
supercharger,Grants,United States,35.150593,-107.85
destination charger,Rezzato,Italy,45.512146,10.311645
destination charger,Miguel Hidalgo,Mexico,19.429584,-99.211029
destination charger,Skjåk,Norway,61.882858,8.26967
destination charger,Corpus Christi,United States,27.696245,-97.349457
destination charger,三重県,Japan,34.305614,136.884709
destination charger,북구,South Korea,35.1718225,126.9200511
destination charger,East Maitland,Australia,-32.762583,151.590355
supercharger,Jettingen,Germany,48.411054,10.44042
destination charger,Vettelschoss,Germany,50.615644,7.313219
destination charger,Chihuahua,Mexico,29.049592,-106.328074
destination charger,Monterrey,Mexico,25.665314,-100.317098
destination charger,London,United Kingdom,51.516146,-0.06752
destination charger,Azcapotzalco,Mexico,19.464028,-99.181805
destination charger,Ledro,Italy,45.899817,10.705219
destination charger,San Genesio,Italy,46.530736,11.340308
destination charger,Proleb,Austria,47.399939,15.158558
destination charger,Ridnaun,Italy,46.900732,11.318828
destination charger,Morogues,France,47.240838,2.598172
supercharger,Plovdiv,Bulgaria,42.144727,24.768828
destination charger,Hervey Bay,Australia,-25.283167,152.880403
destination charger,Cambria,United States,35.573683,-121.112315
destination charger,Zsambek,Hungary,47.517493,18.732786
destination charger,San Diego,United States,32.70937,-117.232073
destination charger,Galveston,United States,29.305229,-94.798922
destination charger,Lauderdale-by-the-Sea,United States,26.1852677,-80.0958898
destination charger,Castiglion Fiorentino,Italy,43.267189,11.851423
standard charger,Dol de bretagne,France,48.550872,-1.719549
destination charger,Ostrava,Czech Republic,49.80338,18.251217
destination charger,Taisten,Italy,46.767186,12.102934
destination charger,Monmouth,United Kingdom,51.821228,-3.017742
destination charger,Merrijig,Australia,-37.10881,146.337112
destination charger,Kasterlee,Belgium,51.228766,4.978059
destination charger,Cancun,Mexico,21.135493,-86.745043
standard charger,Asolo,Italy,45.802941,11.913634
destination charger,Turners Hill,United Kingdom,51.107856,-0.066426
destination charger,Dubai,United Arab Emirates,25.099428,55.133462
destination charger,Zlin,Czech Republic,49.228538,17.673764
destination charger,Stellshagen,Germany,53.946376,11.141682
destination charger,Regensburg,Germany,49.013987,12.107407
destination charger,Olomouc,Czech Republic,49.607805,17.216171
destination charger,Grosswoltersdorf,Germany,53.131552,13.116343
destination charger,Neukirchen a. Gr./Ven.,Austria,47.254184,12.271526
destination charger,New York,United States,40.776574,-73.96047
standard charger,Morzine,France,46.183695,6.707521
destination charger,Methven,New Zealand,-43.629687,171.650656
supercharger,Gützkow,Germany,53.943943,13.396739
supercharger,North Bay,Canada,46.33226,-79.470873
supercharger,속초시,South Korea,38.180856,128.611593
supercharger,Tuscaloosa,United States,33.175206,-87.450309
destination charger,Waidhofen an der Ybbs,Austria,47.962856,14.775617
supercharger,York,United States,39.910429,-76.700866
destination charger,Saint-Amarin,France,47.89204,7.046411
destination charger,Rochester,United States,43.145031,-77.58624
supercharger,Rawlins,United States,41.790874,-107.210254
destination charger,Portland,United States,45.57809,-122.56863
standard charger,Valencia,Spain,39.456902,-0.347138
destination charger,"Alporchinhos, Porches",Portugal,37.100577,-8.379336
destination charger,Cancun,Mexico,21.033887,-86.789182
supercharger,Indio,United States,33.741291,-116.215029
destination charger,Trezzo sull'Adda,Italy,45.609455,9.522769
destination charger,Quarteira,Portugal,37.078917,-8.126463
destination charger,The Colony,United States,33.066176,-96.885284
destination charger,Reno,United States,39.44027,-119.758341
standard charger,Belvedere Marittimo (CS),Italy,39.63582,15.843124
supercharger,Niort,France,46.298316,-0.37511
supercharger,Glendale,United States,34.145132,-118.257249
supercharger,Wilmington,United States,34.240825,-77.829189
destination charger,Jesup,United States,31.605,-81.883056
destination charger,Eureka,United States,40.804184,-124.158086
destination charger,Hot Springs National Park,United States,34.5165656,-93.0531945
supercharger,Pearl,United States,32.274159,-90.151048
supercharger,Klamath Falls,United States,42.216915,-121.75635
destination charger,Castellgali,Spain,41.685737,1.835655
destination charger,Lom,Norway,61.749457,8.384848
destination charger,Warrington,United States,40.2165951,-75.137799
destination charger,Milan,United States,41.3291153,-82.6206529
supercharger,Brooklyn,United States,40.669936,-73.963069
destination charger,Briollay,France,47.576964,-0.469936
destination charger,Ecatepec de Morelos,Mexico,19.582665,-99.024729
destination charger,Sherington,United Kingdom,52.112144,-0.69978
destination charger,Cuautitlan Izcalli,Mexico,19.671312,-99.201024
destination charger,Silkeborg,Denmark,56.15652,9.556231
destination charger,Charleston,United States,32.782707,-79.933428
supercharger,Giddings,United States,30.178951,-96.907021
supercharger,Miles City,United States,46.390473,-105.82276
destination charger,Villerville,France,49.401652,0.130697
destination charger,Husseren-les-Châteaux,France,48.035015,7.276013
destination charger,Markt Nordheim,Germany,49.558735,10.297943
destination charger,Lutz,United States,28.189155,-82.540006
destination charger,Svarstad,Norway,59.396442,9.931859
destination charger,Koeln,Germany,50.9384697,6.908944
destination charger,San Marcos,United States,33.125037,-117.208168
destination charger,Pigeon Forge,United States,35.809438,-83.576405
destination charger,Rockhampton,Australia,-23.376426,150.513458
destination charger,Eastern Creek,Australia,-33.80382455,150.867729
destination charger,Laguiole,France,44.67859,2.899213
destination charger,Frankfurt am Main,Germany,50.102058,8.553378
supercharger,White River,Canada,48.591881,-85.272325
destination charger,Herne Hill,Australia,-31.837301,116.016533
destination charger,Ensenada,Mexico,31.942872,-116.736403
supercharger,Kearny,United States,40.749014,-74.135578
destination charger,New York,United States,40.78859,-73.97118
destination charger,Toluca de Lerdo,Mexico,19.307761,-99.633949
standard charger,Rimini,Italy,44.055283,12.594683
destination charger,Poznan,Poland,52.397273,16.897631
destination charger,Villanueva de Campean,Spain,41.354917,-5.76976
destination charger,Amsterdam,Netherlands,52.357784,4.856549
destination charger,Lavello,Italy,41.035775,15.771677
destination charger,Muenchen,Germany,48.177006,11.593035
destination charger,Billiers,France,47.514587,-2.501088
destination charger,San Giustino Valdarno,Italy,43.541879,11.714976
destination charger,Milano,Italy,45.463815,9.193981
destination charger,Lakeside,United States,32.939979,-116.873918
destination charger,Malibu,United States,34.025182,-118.769613
destination charger,Lake Oswego,United States,45.447334,-122.670041
destination charger,Tampa,United States,27.87655,-82.506961
destination charger,Reno,United States,39.516978,-119.888626
destination charger,Marina del Rey,United States,33.982146,-118.459493
destination charger,Las Vegas,United States,36.132303,-115.157647
destination charger,Reno,United States,39.504449,-119.779649
destination charger,Meursault,France,46.974105,4.773258
destination charger,Adro,Italy,45.600081,10.000733
destination charger,Fairburn,United States,33.540727,-84.5782672
destination charger,Montreal,Canada,45.506477,-73.554385
destination charger,台東市,Taiwan,22.794844,121.128507
destination charger,Guadalajara,Mexico,20.697882,-103.373736
destination charger,Kingston,Canada,44.226901,-76.498843
destination charger,Pismo Beach,United States,35.164407,-120.689728
standard charger,Caltignaga,Italy,45.525895,8.585776
supercharger,Bursa,Turkey,40.261878,28.923953
destination charger,New Plymouth,New Zealand,-39.053422,174.088886
destination charger,New York,United States,40.716268,-74.009491
destination charger,Chartres de Bretagne,France,48.034577,-1.712359
standard charger,魚池鄉,Taiwan,23.883701,120.919525
destination charger,Kettering,Australia,-43.12919715,147.2466391
destination charger,North Little Rock,United States,34.7981864,-92.2204068
destination charger,Conway,United States,35.1095405,-92.434177
destination charger,Conway,United States,35.0897479,-92.419566
destination charger,Healdsburg,United States,38.522965,-122.879001
destination charger,Surnadal,Norway,62.97294,8.725223
destination charger,Barcelona,Spain,41.393861,2.156727
destination charger,Palm Springs,United States,33.823254,-116.5478
destination charger,Alfeizerao,Portugal,39.503587,-9.104798
destination charger,Coarsegold,United States,37.214164,-119.708038
destination charger,Fremont,United States,37.532181,-122.000213
supercharger,Saint Louis County,United States,38.507459,-90.329069
destination charger,Vail,United States,39.642952,-106.379133
destination charger,Wanaka,New Zealand,-44.715077,169.13508
destination charger,울산광역시,South Korea,35.519702,129.430355
destination charger,Wayland,United States,42.631113,-85.656383
destination charger,Nusfjord,Norway,68.035771,13.346557
destination charger,Glen Arbor,United States,44.897565,-85.988658
destination charger,Paris,France,48.865738,2.258439
destination charger,三重県,Japan,34.361586,136.815808
destination charger,Oamaru,New Zealand,-45.091359,170.973725
supercharger,Guarda,Portugal,40.5594249,-7.2329302
destination charger,Riviere-du-Loup,Canada,47.828752,-69.553042
destination charger,Acapulco,Mexico,16.794313,-99.856011
destination charger,Summerland,Canada,49.6011203,-119.6533166
destination charger,Lake Moogerah,Australia,-28.029366,152.552856
destination charger,Orlando,United States,28.474705,-81.464334
destination charger,Greenock,Australia,-34.464024,138.92099
destination charger,Lakes Entrance,Australia,-37.8756,147.9948
supercharger,Annapolis,United States,38.980062,-76.540338
destination charger,Elk Grove Village,United States,42.0248324,-87.9606725
destination charger,Schiller Park,United States,41.9552467,-87.8826061
destination charger,Solana Beach,United States,32.980407,-117.259812
destination charger,Ottawa,Canada,45.347959,-75.91811
destination charger,Glenview,United States,42.0795693,-87.8654424
destination charger,Bend,United States,44.057922,-121.312053
destination charger,Gandosso,Italy,45.664738,9.893704
destination charger,Banchory,United Kingdom,57.08549,-2.505439
destination charger,Fresno,United States,36.8086559,-119.7810627
destination charger,Mayrhofen,Austria,47.167683,11.866111
standard charger,Saint-Florent,France,42.674082,9.295655
supercharger,Hartford,United States,41.788303,-72.65546
destination charger,Brancaster,United Kingdom,52.966055,0.678897
destination charger,Fort Worth,United States,32.824473,-97.059412
destination charger,Comano Terme,Italy,46.038024,10.876331
destination charger,Okanagan Falls,Canada,49.3247253,-119.5460569
supercharger,Menlo Park,United States,37.423395,-122.198224
supercharger,Idaho Falls,United States,43.485152,-112.05205
destination charger,Cuajimalpa,Mexico,19.358082,-99.276988
destination charger,Yulee,United States,30.6189156,-81.6455032
destination charger,Aigen im Mühlkreis,Austria,48.646221,13.971745
destination charger,Gustavo A madero,Mexico,19.443105,-99.085704
destination charger,Marche,Belgium,50.227369,5.346132
destination charger,Berlin,Germany,52.421306,13.167635
destination charger,"Whitehouse, Rosslare",Ireland,52.279376,-6.392995
destination charger,Galway,Ireland,53.313477,-8.985946
standard charger,Liberec,Czech Republic,50.766353,15.058664
destination charger,Fujairah,United Arab Emirates,25.507158,56.362748
destination charger,Pyhätunturi,Finland,67.021444,27.242337
supercharger,Seabrook,United States,42.895248,-70.869299
destination charger,St. Helena,United States,38.515494,-122.41096
destination charger,Cervinia,Italy,45.931932,7.630386
destination charger,Joplin,United States,37.044038,-94.481329
destination charger,Key West,United States,24.5618181,-81.805
destination charger,Dover,United States,43.1888713,-70.8877473
destination charger,Veracruz,Mexico,19.194186,-96.126276
destination charger,Berlin,Germany,52.532951,13.380476
destination charger,Saanenmoeser-Gstaad,Switzerland,46.518969,7.310579
destination charger,Adelaide,Australia,-34.939172,138.536369
destination charger,Diepenheim,Netherlands,52.175972,6.614891
destination charger,Guerrero Negro,Mexico,27.967992,-114.017044
destination charger,Lubbock,United States,33.591025,-101.867768
standard charger,Tarragona,Spain,41.299504,1.261364
destination charger,Santa Fe,United States,35.682345,-105.945457
standard charger,Isola d'Asti,Italy,44.833076,8.188131
destination charger,Nola,Italy,40.963881,14.480053
destination charger,서울특별시,South Korea,37.53532,126.9983
destination charger,Irapuato,Mexico,20.683809,-101.393815
destination charger,Alcobendas,Spain,40.534692,-3.621364
destination charger,Blankenberge,Belgium,51.315424,3.130263
destination charger,Vellinge,Sweden,55.427212,13.006407
standard charger,Vesenaz,Switzerland,46.238381,6.196463
destination charger,San Vigilio di Marebbe,Italy,46.698038,11.927146
destination charger,Saint-Alban-Auriolles,France,44.414651,4.274861
destination charger,Vorderweissenbach,Austria,48.590649,14.173765
destination charger,Rockford,United States,42.269632,-88.971292
supercharger,Sancé,France,46.346553,4.850173
destination charger,Spring Hill,Australia,-27.464522,153.026975
supercharger,Pleasant Prairie,United States,42.518715,-87.950428
standard charger,滿州鄉,Taiwan,21.999876,120.819844
destination charger,Soell,Austria,47.49806247,12.198091
supercharger,Great Chesterford,United Kingdom,52.168184,0.109099
destination charger,Danville,United States,37.810487,-121.991211
supercharger,Chestnut Hill,United States,42.32218,-71.17228
supercharger,Brockville,Canada,44.589575,-75.684302
supercharger,Hooksett,United States,43.11007,-71.475065
destination charger,Jekyll Island,United States,31.046057,-81.411542
standard charger,Macau,"Macao S.A.R., China",22.1904922,113.540829
supercharger,Wokingham,United Kingdom,51.428333,-0.898835
destination charger,Nad Al Sheba,United Arab Emirates,25.171479,55.322363
supercharger,Corse,France,42.303821,9.158317
destination charger,千葉県,Japan,34.910384,139.860397
destination charger,Cowes,Australia,-38.472779,145.239172
destination charger,Idyllwild,United States,33.7554,-116.702189
destination charger,San Luis Potosi,Mexico,22.125615,-101.019206
destination charger,Bridgwater,United Kingdom,51.06568,-2.993692
destination charger,East Peoria,United States,40.672956,-89.587645
supercharger,Ehrenberg,United States,33.601995,-114.522011
destination charger,Sømna,Norway,65.31047,12.166769
destination charger,Roses,Spain,42.242349,3.203249
destination charger,Gålå,Norway,61.499683,9.788699
destination charger,Tuolumne,United States,37.973467,-120.238499
destination charger,Nykøbing Falster,Denmark,54.785042,12.002743
supercharger,부산,South Korea,35.160676,129.163823
destination charger,Naucalpan de Juarez,Mexico,19.421264,-99.287257
destination charger,Kuortane,Finland,62.819202,23.501246
destination charger,Cadell,Australia,-34.066104,139.838445
destination charger,Osoyoos,Canada,49.040895,-119.434408
destination charger,South Haven,United States,42.404325,-86.141746
destination charger,Viseu,Portugal,40.41119,-8.041743
supercharger,Deerfield Beach,United States,26.317396,-80.119858
destination charger,Dunham,Canada,45.130539,-72.800473
destination charger,Penjamo,Mexico,20.471302,-101.617433
destination charger,Cuauhtemoc,Mexico,19.428617,-99.16619
supercharger,Canmore,Canada,51.100208,-115.359179
destination charger,Guadalajara,Mexico,20.702942,-103.376695
supercharger,Leiderdorp,Netherlands,52.160832,4.54932
destination charger,Verona,Italy,45.435417,10.990417
destination charger,Benito Juarez,Mexico,19.400285,-99.170907
standard charger,Weyhe,Germany,52.99439,8.815327
destination charger,Luson,Italy,46.746214,11.776135
supercharger,Irschenberg,Germany,47.82683,11.89809
destination charger,"Parksville,",Canada,49.321674,-124.315069
destination charger,Meransen,Italy,46.823027,11.667151
destination charger,St. Ulrich,Italy,46.571195,11.682515
destination charger,Ahrntal,Italy,46.995273,11.977242
destination charger,Manteo,United States,35.907631,-75.67063
destination charger,McDonough,United States,33.42794,-84.184666
destination charger,New York,United States,40.770709,-73.991725
destination charger,Mashpee,United States,41.61677,-70.492238
destination charger,Galveston,United States,29.309704,-94.790271
destination charger,Taupo,New Zealand,-38.704018,176.099465
destination charger,Ballina,Australia,-28.868603,153.58893
standard charger,Archidona,Spain,37.125982,-4.29612
destination charger,Aschheim / Dornach,Germany,48.151572,11.682367
destination charger,San Luis Potosi,Mexico,22.138238,-101.030344
destination charger,서울특별시,South Korea,37.5282778,126.9206837
destination charger,San Nicolas de los Garza,Mexico,25.720793,-100.217109
destination charger,Rouffach,France,47.962947,7.29653
destination charger,Valle Aurina,Italy,46.962835,11.920856
destination charger,Genas,France,45.72456,4.977139
destination charger,Cancun,Mexico,21.0811,-86.77384
standard charger,Hong Kong,"Hong Kong S.A.R., China",22.366921,114.134683
supercharger,Vallejo,United States,38.131238,-122.223418
destination charger,Lienz,Austria,46.818849,12.754325
destination charger,Olsztyn,Poland,53.777127,20.482815
destination charger,Zehun,Czech Republic,50.140647,15.326887
destination charger,Munchen,Germany,48.169667,11.588112
destination charger,Lytton,Canada,50.260333,-121.535777
destination charger,Lagraulet-du-Gers,France,43.903443,0.212272
destination charger,Brno,Czech Republic,49.212834,16.567008
destination charger,Columbus,United States,39.958798,-82.994743
destination charger,New York,United States,40.782031,-73.959484
supercharger,Pismo Beach,United States,35.136647,-120.628705
destination charger,Poole,United Kingdom,50.714549,-1.992038
destination charger,Grand Junction,United States,39.115307,-108.535576
destination charger,Tongyeong-si,South Korea,34.7759457,128.395915
supercharger,Gilman,United States,40.752202,-87.996464
destination charger,Lodge,Austria,47.384887,12.545319
destination charger,Reno,United States,39.522924,-119.81402
supercharger,Saint-Priest,France,45.69848,4.977541
destination charger,士林區,Taiwan,25.099192,121.551172
destination charger,Kehl,Germany,48.576768,7.808276
destination charger,Chamblee,United States,33.8903894,-84.3001479
destination charger,Tempe,United States,33.430569,-111.938445
destination charger,Placerville,United States,38.694947,-120.908402
destination charger,Galena,United States,42.4053874,-90.3384164
supercharger,Chestertown,United States,43.665428,-73.784215
destination charger,Cancun,Mexico,21.11051,-86.839967
destination charger,Playa del Carmen,Mexico,20.766747,-86.955467
destination charger,Jojutla,Mexico,18.606225,-99.287826
supercharger,Parry Sound,Canada,45.345586,-80.006162
destination charger,Pasadena,United States,29.71204,-95.220038
standard charger,Mestre,Italy,45.512172,12.235153
destination charger,Uvalde,United States,29.215482,-99.76972
supercharger,Emeryville,United States,37.840281,-122.294041
destination charger,St. Helier,United Kingdom,49.191688,-2.109773
supercharger,台北市,Taiwan,25.02059,121.543246
supercharger,Skibotn,Norway,69.392448,20.268423
destination charger,St Helena,United States,38.519773,-122.475455
destination charger,Ljubljana,Slovenia,46.053864,14.515223
supercharger,Törökbálint,Hungary,47.43949,18.889644
destination charger,Obergurgl,Austria,46.875221,11.031812
destination charger,Santa Maria,United States,34.854043,-120.370813
destination charger,Branford,United States,41.27475,-72.812976
destination charger,Zapopan,Mexico,19.435098,-99.209671
destination charger,Waukegan,United States,42.4168768,-87.8672769
supercharger,San Francisco Ocotlán,Mexico,19.131853,-98.267274
destination charger,Rock Springs,United States,41.612227,-109.229994
destination charger,Tlalnepantla,Mexico,19.539116,-99.200164
destination charger,Dahlonega,United States,34.6077551,-83.8578646
destination charger,Dubai,United Arab Emirates,25.200945,55.272379
destination charger,Chingford,United Kingdom,51.648851,0.003133
destination charger,Athens,United States,33.961983,-83.375885
destination charger,Napa,United States,38.305275,-122.283453
standard charger,Campitello di Fassa,Italy,46.474658,11.74291
destination charger,Bronte Park,Australia,-42.143431,146.490744
supercharger,Copiague,United States,40.688883,-73.406437
destination charger,Idro,Italy,45.739758,10.4759
destination charger,Bayreuth,Germany,49.949118,11.579167
destination charger,Naramata,Canada,49.577732,-119.574345
destination charger,Newcastle,Australia,-32.929119,151.784941
destination charger,Cork,Ireland,51.893546,-8.508452
destination charger,New York,United States,40.76306,-73.968409
supercharger,Aleksinac,Serbia,43.528816,21.709413
destination charger,Gerols,Austria,47.229739,12.045904
destination charger,New York,United States,40.707679,-74.004687
destination charger,Braselton,United States,34.101297,-83.817654
destination charger,Monterrey,Mexico,25.615556,-100.27446
supercharger,Twin Falls,United States,42.597887,-114.455249
destination charger,Ciudad de Mexico,Mexico,19.369733,-99.194157
destination charger,Zapopan,Mexico,19.358103,-99.151884
supercharger,Vøringsfossen,Norway,60.410401,7.325072
destination charger,Amenia,United States,41.853424,-73.51334
destination charger,Gargas,France,43.87939,5.321029
destination charger,Budyne nad Ohri,Czech Republic,50.39488,14.0921
destination charger,Kitzbuehel,Austria,47.432478,12.42629
destination charger,Poznan,Poland,52.458816,16.881011
destination charger,Portschach,Austria,46.634356,14.120472
destination charger,Ardnamurchan,United Kingdom,56.691483,-5.940657
destination charger,Malchow,Germany,53.474523,12.428933
standard charger,Leverkusen,Germany,51.035717,6.988502
destination charger,Bye Road,United Kingdom,53.655762,-2.290255
destination charger,Pittsburgh,United States,40.4462711,-79.9970378
destination charger,Tyrrelstown,Ireland,53.419053,-6.378743
destination charger,Glenelg,Australia,-34.98098,138.511397
destination charger,Miami Beach,United States,25.781954,-80.142626
destination charger,Vitznau,Switzerland,47.014967,8.478416
standard charger,Hong Kong,"Hong Kong S.A.R., China",22.374757,114.109834
destination charger,Ahrenshoop,Germany,54.384082,12.425815
destination charger,Tarrytown,United States,41.049684,-73.857388
destination charger,St Kilda,Australia,-37.862284,144.973965
destination charger,St. Augustine,United States,29.9049033,-81.3200534
destination charger,Cambridge,Canada,43.381492,-80.372067
destination charger,Pietrasanta,Italy,43.915906,10.212963
destination charger,Narberth,United Kingdom,51.783396,-4.801274
destination charger,Folgaria,Italy,45.882351,11.199044
destination charger,Jurica,Mexico,20.673924,-100.453393
supercharger,Hong Kong,"Hong Kong S.A.R., China",22.28364,114.15089
destination charger,New York,United States,40.737533,-73.980437
destination charger,New York,United States,40.811187,-73.963571
supercharger,台南市,Taiwan,22.989876,120.20088
destination charger,New York,United States,40.715071,-74.012203
destination charger,Little Rock,United States,34.7421207,-92.3947512
destination charger,Ensenada,Mexico,31.861633,-116.621655
supercharger,Burlington,United States,36.070788,-79.511222
destination charger,Oxton,United Kingdom,53.058692,-1.061694
supercharger,Hokksund,Norway,59.761249,9.905515
supercharger,Izmir,Turkey,38.417137,27.130529
standard charger,Ruds Vedby,Denmark,55.51016,11.379574
destination charger,Southern Pines,United States,35.1728307,-79.4246222
destination charger,Depew,United States,42.911924,-78.694689
destination charger,Little River,United States,39.272267,-123.789132
destination charger,Roma,Italy,41.98828,12.518046
destination charger,富山県,Japan,36.826122,137.41008
destination charger,Geiranger,Norway,62.092607,7.224439
supercharger,Fairfield,United States,38.261782,-122.052399
destination charger,Junee,Australia,-34.871014,147.582541
destination charger,Marseille,France,43.280709,5.387067
destination charger,Auersthal,Austria,48.372668,16.639422
supercharger,Morgan Hill,United States,37.156369,-121.653476
destination charger,Vlissingen,Netherlands,51.446344,3.564244
destination charger,Steinegg,Italy,46.483919,11.457039
destination charger,Avondale,United States,29.887978,-90.193344
destination charger,Avenel,Australia,-36.891159,145.229562
destination charger,St Mary Bourne,United Kingdom,51.246825,-1.391967
destination charger,Alton,United Kingdom,51.18836,-0.903896
destination charger,Greenwich,United States,41.0942381,-73.7098113
destination charger,Montepulciano,Italy,43.094561,11.796415
destination charger,Morelia,Mexico,19.685278,-101.163392
destination charger,高野町,Japan,31.81112,130.957191
destination charger,Schaumburg,United States,42.047578,-88.05899
destination charger,Orford,Canada,45.306386,-72.164186
destination charger,Miguel Hidalgo,Mexico,19.431843,-99.193952
destination charger,Lugano,Switzerland,45.993497,8.942443
destination charger,Porto Cervo,Italy,41.118053,9.535408
destination charger,Castelrotto,Italy,46.568818,11.562423
supercharger,Manzanares,Spain,39.006311,-3.383035
destination charger,Ziano di Fiemme,Italy,46.287028,11.565293
destination charger,Payson,United States,34.2512098,-111.3217987
destination charger,Cowes,Australia,-38.450441,145.240202
destination charger,Westwego,United States,29.9075536,-90.1605889
destination charger,Guadalajara,Mexico,20.653138,-103.389201
destination charger,Cabo San Lucas,Mexico,22.915156,-109.835751
supercharger,Washington,United Kingdom,54.887466,-1.558245
destination charger,Revelstoke,Canada,51.00966,-118.210031
supercharger,Augusta,United States,33.514985,-82.04446
destination charger,Saltillo,Mexico,25.44469,-100.985428
supercharger,Missoula,United States,46.914375,-114.031924
supercharger,Superior,United States,39.954889,-105.164646
destination charger,Seffner,United States,28.008119,-82.301067
destination charger,Rancho Santa Fe,United States,32.997119,-117.194047
destination charger,Poole,United Kingdom,50.766851,-2.073197
destination charger,Weissensee,Austria,46.717782,13.289482
destination charger,Waging am See,Germany,47.934705,12.752974
supercharger,Rubigen,Switzerland,46.892094,7.542931
destination charger,Willits,United States,39.39969,-123.349082
destination charger,Ballycastle,United Kingdom,55.191617,-6.242496
standard charger,대구광역시,South Korea,35.855812,128.606333
destination charger,Airdrie,Canada,51.301112,-113.997597
destination charger,Loreto,Mexico,25.717947,-111.233261
destination charger,San Ignacio,Mexico,27.28195,-112.898947
destination charger,Strass im Zillertal,Austria,47.390608,11.824223
destination charger,"Cancun, Quintana Roo",Mexico,21.038935,-86.781869
destination charger,Jacksonville,United States,30.249266,-81.5981
destination charger,Columbus,United States,40.115967,-83.013604
destination charger,Dubai,United Arab Emirates,25.270783,55.327072
destination charger,Ensenada,Mexico,30.400377,-115.911936
destination charger,Smyrna,United States,35.974206,-86.576891
destination charger,Menen,Belgium,50.801815,3.12192
destination charger,Ghent,United States,42.252397,-73.64195
supercharger,Slidell,United States,30.266552,-89.760156
destination charger,St. Leonhard im Pitztal,Austria,46.975188,10.868474
destination charger,Chasseneuil-du-Poitou,France,46.650701,0.376165
destination charger,Nonnenhorn,Germany,47.575506,9.611288
destination charger,Monterrey,Mexico,25.647491,-100.325805
standard charger,Heiligenstadt,Germany,49.841223,11.197854
supercharger,Gouda,Netherlands,52.022778,4.684873
destination charger,瑞穗鄉,Taiwan,23.508146,121.376387
supercharger,Lavik,Norway,61.103661,5.513039
destination charger,Spokane Valley,United States,47.673676,-117.201827
supercharger,Lermoos,Austria,47.3948,10.887553
supercharger,Blind River,Canada,46.185322,-82.926876
supercharger,Claymont,United States,39.817478,-75.457259
destination charger,Pooler,United States,32.146895,-81.25244
destination charger,Faervik,Norway,58.446326,8.849191
destination charger,Magnor,Norway,59.931625,12.239529
destination charger,Coober Pedy,Australia,-29.0106166,134.7543206
supercharger,San Jose,United States,37.321909,-121.949106
destination charger,Launceston,Australia,-41.440356,147.12888
destination charger,Sterling,United States,40.474278,-104.891562
destination charger,Austin,United States,30.477825,-97.680383
destination charger,静岡県,Japan,35.03921,138.935511
destination charger,Zagreb,Croatia,45.811083,15.97991
destination charger,長野県,Japan,36.843024,138.196977
supercharger,Eidfjord,Norway,60.467438,7.068209
supercharger,Ugchelen,Netherlands,52.177652,5.912803
destination charger,Sainte-Preuve,France,49.614794,3.882369
destination charger,Pfofeld OT Langlau,Germany,49.127472,10.863402
destination charger,Kristiansund,Norway,63.10858962,7.7287436
destination charger,Miami Beach,United States,25.812762,-80.122904
destination charger,Sydney,Australia,-33.875975,151.212678
destination charger,Schneizlreuth,Germany,47.711825,12.784193
destination charger,Cochrane,Canada,49.05906,-81.036314
destination charger,Nuriootpa,Australia,-34.47298,138.995783
destination charger,Bromont,Canada,45.304932,-72.63798
destination charger,Zell am See,Austria,47.327854,12.786263
destination charger,Westport,United States,46.859479,-124.108594
supercharger,Big Timber,United States,45.83626,-109.94341
destination charger,Grand Canyon Village,United States,35.969588,-112.129535
standard charger,安平區,Taiwan,22.999171,120.148811
destination charger,Rosarito,Mexico,32.33475,-117.055116
destination charger,Guadalupe,Mexico,25.651732,-100.26532
destination charger,Champfèr,Switzerland,46.477494,9.810836
destination charger,Reva,United States,38.460384,-78.128655
destination charger,Victoria,Canada,48.420311,-123.362929
destination charger,Santa Clara,United States,37.383181,-121.978802
destination charger,Dahlonega,United States,34.53318,-83.986424
destination charger,Ithaca,United States,42.401672,-76.502904
supercharger,Moses Lake,United States,47.103808,-119.310556
destination charger,Tultitlan,Mexico,19.608868,-99.188942
destination charger,Guadalajara,Mexico,20.65255,-103.396651
destination charger,San Pedro Garza Garcia,Mexico,25.651756,-100.332504
destination charger,St Helena,United States,38.50939,-122.478401
destination charger,Whitney,Canada,45.489634,-78.244608
destination charger,Taylors Falls,United States,45.488811,-92.705093
supercharger,San Clemente,United States,33.436793,-117.626864
destination charger,Plymouth,United States,38.480967,-120.847971
destination charger,Miguel Hidalgo,Mexico,19.425059,-99.178321
destination charger,Cuauhtemoc,Mexico,19.432348,-99.154855
destination charger,Murray,United States,36.635046,-88.309691
supercharger,Kanazawa,Japan,36.59876438,136.6242859
destination charger,Mexicali,Mexico,32.666651,-115.46488
destination charger,伊東市,Japan,35.031359,139.096904
destination charger,Oberbozen,Italy,46.527668,11.40553
destination charger,Ratschings,Italy,46.86516,11.309547
destination charger,Deutschnofen,Italy,46.385112,11.529637
destination charger,Kangaroo Point,Australia,-27.473983,153.036461
destination charger,Oliver,Canada,49.102681,-119.546719
destination charger,Montreal,Canada,45.493146,-73.69994
destination charger,Dodge City,United States,37.754546,-100.021371
destination charger,Rockport,United States,28.056981,-97.041521
supercharger,Marlborough,United States,42.395459,-71.595021
destination charger,청주시 상당구,South Korea,36.684968,127.602554
destination charger,Baldivis,Australia,-32.333998,115.814559
destination charger,Vale de Janelas,Portugal,39.389773,-9.28788
destination charger,Trencin,Slovakia,48.899877,18.057141
destination charger,Eppan,Italy,46.49722,11.257701
destination charger,Sechelt,Canada,49.54563,-123.762702
destination charger,Merida,Mexico,21.000114,-89.572241
destination charger,Cd Apodaca,Mexico,25.785577,-100.13555
destination charger,Cancun,Mexico,21.107154,-86.763134
destination charger,Russenes,Norway,70.478106,25.065907
destination charger,Fai della Paganella,Italy,46.175693,11.064174
destination charger,Wetzlar,Germany,50.552178,8.509609
destination charger,Langenwang,Austria,47.56852,15.62037
destination charger,Bad Griesbach im Rottal,Germany,48.430031,13.185234
destination charger,Fiss,Austria,47.055879,10.622348
destination charger,Nashville,United States,36.152491,-86.784039
destination charger,Oravska Jasenica,Slovakia,49.391236,19.451018
destination charger,Grand Junction,United States,39.067617,-108.559657
destination charger,Novate Milanese,Italy,45.534511,9.123954
destination charger,Bardolino,Italy,45.55164,10.725531
destination charger,Besançon,France,47.240472,6.025936
supercharger,Hayward,United States,37.667211,-122.120366
supercharger,Forte dei Marmi,Italy,43.956416,10.194539
supercharger,Sudbury,Canada,46.440506,-81.004739
destination charger,Clermont-Ferrand,France,45.772971,3.080421
destination charger,Markham,Canada,43.853852,-79.335003
destination charger,St. Goar,Germany,50.153562,7.705422
supercharger,Flatonia,United States,29.697904,-97.099993
supercharger,Lone Tree,United States,39.562731,-104.873454
destination charger,萬里區,Taiwan,25.209825,121.643125
supercharger,Bismo,Norway,61.88317,8.267157
destination charger,Vancouver,Canada,49.28571,-123.123763
destination charger,Des Moines,United States,41.5904938,-93.6233432
destination charger,East Perth,Australia,-31.961482,115.871555
destination charger,Obergesteln,Switzerland,46.512103,8.325143
destination charger,Childers,Australia,-25.159415,152.258312
destination charger,Mutarnee,Australia,-18.947488,146.279516
destination charger,Miami,United States,25.7995,-80.253658
destination charger,Clearwater,United States,28.001879,-82.727794
destination charger,三峽區,Taiwan,24.917802,121.433527
destination charger,斗六市,Taiwan,23.707164,120.528954
destination charger,Gambier,United States,40.3764852,-82.3977988
destination charger,Huron,United States,41.4024268,-82.5918665
destination charger,Baden,Austria,48.010326,16.235063
destination charger,Kangaroo Island,Australia,-35.670294,137.07259
destination charger,Zaragoza,Spain,41.607358,-0.887926
destination charger,Lagundo / Algund,Italy,46.684139,11.134327
destination charger,Lana,Italy,46.591877,11.144185
destination charger,Mals,Italy,46.698468,10.510612
destination charger,Alma,United States,39.270961,-106.045926
destination charger,Castelfranco Veneto,Italy,45.678607,11.916439
destination charger,Leon,Mexico,21.158464,-101.702713
destination charger,Santa Cristina,Italy,46.55991,11.716389
destination charger,Augusta,United States,33.479143,-81.968019
supercharger,Strängnäs,Sweden,59.328044,17.016232
destination charger,Boca Raton,United States,26.316072,-80.075809
standard charger,Hong Kong,"Hong Kong S.A.R., China",22.280064,114.175446
supercharger,Springfield,United States,38.774366,-77.177538
destination charger,Horsham,Australia,-36.711207,142.203015
supercharger,Pollein,Italy,45.73745,7.371416
destination charger,Ann Arbor,United States,42.241166,-83.735175
destination charger,Beerwah,Australia,-26.835481,152.961237
supercharger,Châteauvillain,France,48.057341,4.959604
destination charger,SULDALSOSEN,Norway,59.494877,6.52703
destination charger,Steeg,Austria,47.253333,10.322358
supercharger,Mission Viejo,United States,33.557287,-117.668031
supercharger,Laytonville,United States,39.689252,-123.483306
standard charger,Taipa,"Macao S.A.R., China",22.155172,113.543471
destination charger,Schaumburg,United States,42.0413625,-88.0509415
destination charger,Gaerwen,United Kingdom,53.18761,-4.340583
supercharger,Rugtvedt,Norway,59.035933,9.67402
destination charger,Stemmen,Germany,53.222027,9.552847
destination charger,Volterra,Italy,43.453258,10.876345
destination charger,Atlanta,United States,33.876036,-84.304316
destination charger,Porto-Vecchio,France,41.600377,9.269668
destination charger,Zwettl,Austria,48.583293,15.149501
destination charger,Deleg. Miguel Hidalgo,Mexico,19.427433,-99.195326
destination charger,Bloomington,United States,44.858066,-93.236759
standard charger,Parsdorf,Germany,48.143511,11.781023
destination charger,Canberra,Australia,-35.30038,149.190198
destination charger,Whistler,Canada,50.114063,-122.957647
destination charger,Cathedral City,United States,33.780004,-116.469577
standard charger,North Aurora,United States,41.81609,-88.351972
destination charger,Calvi,France,42.537154,8.78582
destination charger,Asciano,Italy,43.237162,11.480266
destination charger,Millbrae,United States,37.609602,-122.401414
destination charger,Destin,United States,30.384931,-86.431025
destination charger,Jacksonville,United States,30.1927909,-81.7075297
destination charger,Breckenridge,United States,39.480486,-106.066908
destination charger,Lithia Springs,United States,33.7806816,-84.6097451
destination charger,Freshwater,Australia,-33.779139,151.291861
destination charger,Venabygd,Norway,61.671681,10.102525
destination charger,Auckland,New Zealand,-36.979381,174.768452
destination charger,McLaren Vale,Australia,-35.207548,138.542557
destination charger,Appiano Gentile,Italy,45.720216,8.953286
destination charger,Blyth,Canada,43.730625,-81.433429
supercharger,Hong Kong,"Hong Kong S.A.R., China",22.27704,114.164391
supercharger,Atlanta,United States,33.79382,-84.39713
standard charger,Oslo,Norway,59.91858,10.733902
destination charger,New York,United States,40.78098,-73.951145
destination charger,Hamptonville,United States,36.096502,-80.85126
supercharger,St. Louis Park,United States,44.936292,-93.348112
standard charger,Løkken,Denmark,57.372654,9.714259
destination charger,Heber Springs,United States,35.5177645,-91.9564417
supercharger,Ocala,United States,29.140981,-82.193938
supercharger,Churra,Spain,38.038172,-1.149343
supercharger,Chilpancingo,Mexico,17.514723,-99.482739
supercharger,Morano Calabro,Italy,39.875989,16.065094
supercharger,Lincoln,United States,44.042484,-71.66745
destination charger,Little Rock,United States,34.677546,-92.32246
standard charger,Levice,Slovakia,48.212881,18.613449
destination charger,Kleinkarlbach,Germany,49.540596,8.149149
destination charger,Mangere,New Zealand,-36.971207,174.786078
destination charger,New Prague,United States,44.544042,-93.558248
destination charger,Al Nakheel,United Arab Emirates,25.417764,55.439418
destination charger,Puebla,Mexico,19.045347,-98.189087
destination charger,Le Haillan,France,44.867993,-0.669918
destination charger,Lindau-Bodolz,Germany,47.567406,9.672806
destination charger,Nes på Hedmark,Norway,60.765952,10.903733
supercharger,Nossen,Germany,51.08246,13.274088
destination charger,Astoria,United States,40.762502,-73.924507
supercharger,Villa Hidalgo,Mexico,22.520146,-100.663805
destination charger,Bonifacio,France,41.387766,9.168133
destination charger,Liège,Belgium,50.632806,5.579074
destination charger,Levico Terme,Italy,46.015442,11.295516
supercharger,Brattleboro,United States,42.838443,-72.565798
supercharger,San Marcos,United States,29.827707,-97.979685
destination charger,Newbury,United Kingdom,51.464135,-1.345669
destination charger,Chichester,United Kingdom,50.923853,-0.823455
destination charger,Beverly Hills,United States,34.0817921,-118.4133993
destination charger,Beaver Creek,United States,39.604825,-106.515487
destination charger,Mammoth Lakes,United States,37.651321,-118.986123
destination charger,"Ferrel, Peniche",Portugal,39.362834,-9.336068
destination charger,Ruoms,France,44.445334,4.367047
destination charger,Arlington,United States,48.214249,-122.184142
destination charger,Richmond,United States,37.48132,-77.555591
destination charger,Binghamton,United States,42.103321,-75.893754
destination charger,Seebad Ueckermunde,Germany,53.736613,14.120793
supercharger,Strasburg,United States,39.00496,-78.337848
destination charger,Cancun,Mexico,21.137013,-86.827448
destination charger,Ramsau,Austria,47.407023,13.633369
destination charger,Miami Beach,United States,25.824902,-80.121682
destination charger,Casale Monferrato,Italy,45.154348,8.447273
destination charger,Osen,Norway,61.256762,11.670826
destination charger,Toluca de Lerdo,Mexico,19.365868,-99.557462
destination charger,Lezzeno,Italy,45.945223,9.186917
destination charger,Brooklyn,United States,40.6732353,-73.9862323
supercharger,Kennebunk,United States,43.4095,-70.558523
standard charger,Wigginton,United Kingdom,51.770056,-0.629643
standard charger,Hampshire,United Kingdom,51.064152,-0.835497
supercharger,Skellefteå,Sweden,64.76235,21.002864
supercharger,Little Rock,United States,34.6614,-92.41031
destination charger,Bolivar,United States,37.5938874,-93.4057513
destination charger,Graeagle,United States,39.723118,-120.662973
destination charger,Garmisch-Partenkirchen,Germany,47.490142,11.088748
destination charger,Sierksdorf,Germany,54.073748,10.778055
destination charger,Arendsee,Germany,52.868465,11.438705
destination charger,Drobollach,Austria,46.586523,13.925681
destination charger,Freeport,United States,43.865585,-70.099966
destination charger,Dubai,United Arab Emirates,25.248907,55.347345
destination charger,Sutton Coldfield,United Kingdom,52.543744,-1.707447
destination charger,Kaslo,Canada,49.912398,-116.905263
destination charger,Baysville,Canada,45.15212,-79.111087
destination charger,Mt Sterling,United States,38.0754255,-83.9515045
destination charger,Healdsburg,United States,38.589818,-122.837842
destination charger,Delray Beach,United States,26.461198,-80.061232
destination charger,Punta Mita,Mexico,20.768119,-105.536245
destination charger,Flatdal,Norway,59.5704039,8.5475577
destination charger,Upper Sheringham,United Kingdom,52.931584,1.185421
destination charger,San Antonio,United States,29.473895,-98.462295
destination charger,"Finisterre,",Spain,42.88314,-9.271944
destination charger,Marbella,Spain,36.507886,-4.916903
destination charger,Madonna di Campiglio,Italy,46.225356,10.826644
destination charger,White Sulphur Springs,United States,37.786041,-80.307948
destination charger,Södertälje,Sweden,59.172532,17.526634
destination charger,Cleveland,Australia,-27.525551,153.268654
destination charger,Burnsville,United States,44.723766,-93.285055
supercharger,Erie,United States,42.049602,-80.086345
destination charger,Kaprun,Austria,47.269435,12.754842
supercharger,Gettysburg,United States,39.843995,-77.198628
standard charger,Boulogne sur Mer,France,50.723681,1.60973
destination charger,Schwaz,Austria,47.347217,11.707369
destination charger,Eben am Achensee,Austria,47.421431,11.751591
supercharger,Châteauvillain,France,48.057681,4.96061
destination charger,Builth Wells,United Kingdom,52.145899,-3.419994
supercharger,Ashland,United States,43.69811,-71.640125
destination charger,Nibionno,Italy,45.748031,9.272559
destination charger,Sørumsand,Norway,59.986326,11.24584
destination charger,Williamstown,Australia,-37.864451,144.896557
destination charger,Queensbury,United States,43.348898,-73.6888298
destination charger,"North Killingholme, Immingham",United Kingdom,53.639621,-0.269843
supercharger,Manhattan Beach,United States,33.9013,-118.3938
destination charger,Earlville,Australia,-16.944209,145.740401
destination charger,Burlington,Canada,43.289542,-79.875282
standard charger,East Melbourne,Australia,-37.81571,144.98329
destination charger,Oberkirch,Germany,48.508671,8.090754
destination charger,Marchtrenk,Austria,48.191003,14.120802
destination charger,동해시,South Korea,37.48490222,129.1123029
supercharger,Ramos Arizpe,Mexico,25.613459,-100.846877
destination charger,Zell am See,Austria,47.321797,12.79588
supercharger,Limon,United States,39.26937369,-103.7087172
destination charger,Warrnambool,Australia,-38.382128,142.484921
destination charger,Sasbach,Germany,48.63796,8.113417
destination charger,Coronado,United States,32.680535,-117.177638
destination charger,Rawdon,Canada,46.042271,-73.706638
destination charger,Humble,United States,29.999578,-95.196049
destination charger,Truckee,United States,39.281445,-120.119807
destination charger,Bay City,United States,28.98298,-95.984724
destination charger,Bad Fuessing,Germany,48.350111,13.321457
destination charger,Vogt,Germany,47.775341,9.76604
destination charger,Saint-Pierre-Canivet,France,48.920311,-0.244161
destination charger,Champfier,Switzerland,46.479749,9.813881
destination charger,Caen,France,49.184813,-0.356198
destination charger,Coral Springs,United States,26.261331,-80.264953
destination charger,Arluno,Italy,45.519415,8.927393
destination charger,Fair Oaks,United States,41.0095547,-87.2772904
destination charger,Burlingame,United States,37.602645,-122.371
destination charger,Little Rock,United States,34.7522144,-92.3314798
supercharger,Chino Hills,United States,34.002241,-117.731178
destination charger,Schruns,Austria,47.081913,9.926502
destination charger,Guadalajara,Mexico,20.66585,-103.372982
destination charger,San Francisco,United States,37.73313,-122.505159
destination charger,Horw,Switzerland,47.021235,8.325631
destination charger,Berguen,Switzerland,46.629135,9.745838
destination charger,Walla Walla,United States,46.0890194,-118.2782343
standard charger,大雅區,Taiwan,24.218175,120.60805
standard charger,三星鄉,Taiwan,24.681457,121.645137
destination charger,Torreón,Mexico,25.583045,-103.406899
destination charger,St Andrews,United Kingdom,56.345497,-2.823472
destination charger,Guadalajara,Mexico,20.697678,-103.373517
destination charger,St.Anton am Arlberg,Austria,47.128074,10.263712
destination charger,Obertauern,Austria,47.147856,10.570381
destination charger,Inverloch,Australia,-38.633789,145.742651
standard charger,Evershot,United Kingdom,50.838401,-2.605612
destination charger,Bad Groenenbach,Germany,47.870202,10.22353
destination charger,Kaunertal,Austria,47.028382,10.74456
destination charger,新興區,Taiwan,22.633982,120.308102
destination charger,Bar Harbor,United States,44.3872541,-68.2039627
destination charger,Birmingham,United States,33.437176,-86.729828
destination charger,La Manga,Spain,37.656651,-0.721531
destination charger,Auburn,United States,32.557156,-85.504737
destination charger,Büchlberg,Germany,48.653472,13.506896
destination charger,Vignale Riotorto,Italy,42.950841,10.69031
destination charger,Zadar,Croatia,44.118009,15.223634
destination charger,Lyngdal,Norway,58.121673,7.058029
destination charger,Aandalsnes,Norway,62.536592,7.730605
supercharger,Richmond,United States,37.91989,-122.348601
destination charger,Göteborg,Sweden,57.706861,11.972827
destination charger,Liebefeld,Switzerland,46.932017,7.421263
destination charger,福岡市,Japan,33.595962,130.323177
destination charger,La Jolla,United States,32.844475,-117.275126
destination charger,Saint-Beauzeil,France,44.338187,0.928082
destination charger,Bedford,United States,37.448296,-79.604445
destination charger,San Simeon,United States,35.650031,-121.186571
destination charger,Boorabbin,Australia,-31.26394,120.022746
destination charger,Albany,United States,42.6363949,-73.791346
destination charger,New York,United States,40.716256,-74.012543
destination charger,Somma Lombardo,Italy,45.692618,8.702662
destination charger,Point Turton,Australia,-34.9343,137.3511
destination charger,Cicovice,Czech Republic,50.154086,14.241747
destination charger,Snoqualmie,United States,47.51865,-121.841773
destination charger,Zossen,Germany,52.234288,13.446995
destination charger,Los Angeles,United States,34.086515,-118.445697
destination charger,Canyon Point,United States,37.0144,-111.6120004
destination charger,Painted Post,United States,42.1723494,-77.1063856
destination charger,Byron Bay,Australia,-28.642241,153.614974
destination charger,Sonoma,United States,38.312891,-122.482471
destination charger,Santa Monica,United States,34.007114,-118.491534
destination charger,Los Angeles,United States,34.055264,-118.398586
supercharger,Idaho Springs,United States,39.741722,-105.518318
destination charger,Bellaria Igea Marina,Italy,44.14926,12.463707
supercharger,Fort Pierce,United States,27.416831,-80.381893
destination charger,Pinehurst,United States,35.19562,-79.473736
destination charger,Cary,United States,35.82945,-78.76476
destination charger,Dana Point,United States,33.4658094,-117.68938
standard charger,La Pommeraye,France,48.904789,-0.411373
destination charger,Agnes Water,Australia,-24.208097,151.902013
destination charger,Ochtrup,Germany,52.210701,7.198255
destination charger,Mielno,Poland,54.260324,16.05716
destination charger,Nuerburg,Germany,50.341817,6.95293
destination charger,Lake Louise,Canada,51.439925,-116.160446
supercharger,Goodland,United States,39.326258,-101.725107
destination charger,Kandanga,Australia,-26.386172,152.681869
destination charger,Larvik,Norway,59.04964,10.020626
standard charger,Prichovice,Czech Republic,50.742192,15.353059
supercharger,Tacna,United States,32.690622,-113.953578
supercharger,Altoona,United States,41.664181,-93.46561
supercharger,Toledo,United States,41.721552,-83.509201
destination charger,Tromso,Norway,69.649541,18.961981
destination charger,Sisters,United States,44.374817,-121.641265
supercharger,West Wendover,United States,40.738399,-114.058998
destination charger,Morgan Hill,United States,37.134293,-121.631501
destination charger,Geilo,Norway,60.54399,8.198261
destination charger,Alcanar,Spain,40.582393,0.556056
destination charger,Aosta,Italy,45.742986,7.33126
destination charger,Incline Village,United States,39.240101,-119.94198
destination charger,Atlanta,United States,33.84892,-84.36607
destination charger,Atlanta,United States,33.758431,-84.387067
destination charger,Kirribilli,Australia,-33.850162,151.218479
destination charger,Charlotte,United States,35.137302,-80.931188
destination charger,Tampa,United States,27.959829,-82.445018
destination charger,Rutherglen,Australia,-36.052116,146.455975
destination charger,Memphis,United States,35.196114,-89.797391
destination charger,Eaglehawk Neck,Australia,-43.009736,147.928558
destination charger,Atlanta,United States,33.845377,-84.368627
destination charger,Denman Island,Canada,49.536264,-124.816968
destination charger,Bruges,Belgium,51.206559,3.228096
destination charger,Robbinsville,United States,35.466445,-83.920015
destination charger,Stony Creek,United States,36.974829,-77.394007
destination charger,Flaine,France,46.008936,6.681959
destination charger,Watch Hill,United States,41.3103108,-71.8534852
destination charger,Reno,United States,39.497181,-119.800225
destination charger,Washington,United States,38.9005107,-77.0369492
destination charger,Falmouth,United Kingdom,50.147491,-5.059909
destination charger,Manhattan,United States,40.779876,-73.958579
destination charger,San Juan del Rio,Mexico,20.396336,-100.094445
destination charger,Manhattan,United States,40.76332,-73.962938
destination charger,Long Beach,United States,33.767198,-118.191987
destination charger,Lech am Arlberg,Austria,47.216828,10.136629
destination charger,Mimasaka,Japan,34.992465,134.134481
destination charger,Sturgeon Bay,United States,44.86691,-87.370766
destination charger,Beach Haven,United States,39.563186,-74.239133
destination charger,Paradise Valley,United States,33.530619,-111.96346
destination charger,Douglas,United States,42.760811,-105.408181
destination charger,West Des Moines,United States,41.572729,-93.809383
destination charger,Poellau,Austria,47.268873,15.896272
destination charger,Boca del Rio,Mexico,19.150007,-96.094231
destination charger,Laughlin,United States,35.158014,-114.572081
supercharger,Brunswick,United States,31.245945,-81.501682
supercharger,Brunswick,United States,31.245945,-81.501682
destination charger,Toluca,Mexico,19.287215,-99.624385
supercharger,Springfield,United States,40.717735,-74.329331
destination charger,Houston,United States,29.747099,-95.450734
destination charger,Balestrand,Norway,61.209122,6.538135
destination charger,Norangsfjorden,Norway,62.193028,6.659738
destination charger,Aspen,United States,39.19082,-106.819492
destination charger,San Luis Potosi,Mexico,22.126663,-100.922004
destination charger,El Desague,Mexico,21.070923,-101.597744
destination charger,San Luis Potosi,Mexico,22.149243,-100.953105
destination charger,Burleigh Heads,Australia,-28.077115,153.446991
supercharger,Mauston,United States,43.795551,-90.059358
destination charger,Monterrey,Mexico,25.665353,-100.316781
destination charger,제주시,South Korea,33.3907356,126.365847
destination charger,New York,United States,40.76351,-73.979364
destination charger,New York,United States,40.77364,-73.963722
destination charger,Llandudno,United Kingdom,53.316729,-3.818743
supercharger,Valley Stream,United States,40.664127,-73.7251
destination charger,Philadelphia,United States,39.967117,-75.181341
destination charger,Victoria,Canada,48.4220074,-123.364496
destination charger,Mankato,United States,44.162203,-94.007453
destination charger,Hartsville,United States,34.375476,-80.072566
destination charger,Frankfurt am Main,Germany,50.055934,8.591364
destination charger,Gaschurn,Austria,46.986285,10.028194
destination charger,Irun,Spain,43.322415,-1.833031
destination charger,Meinhard,Germany,51.20361,10.106907
destination charger,Neualbenreuth,Germany,49.969898,12.440121
destination charger,Hennstedt,Germany,54.27793,9.197992
destination charger,Berlin,Germany,52.519711,13.390212
destination charger,Aspen,United States,39.1844849,-106.81437
destination charger,Enniskillen,United Kingdom,54.342478,-7.635394
destination charger,Dissay,France,46.714474,0.413373
destination charger,Palm Springs,United States,33.831533,-116.545469
destination charger,Ste-Marthe,Canada,45.428841,-74.334031
destination charger,Madonna di Campiglio,Italy,46.228263,10.828825
destination charger,Bad Fussing,Germany,48.348769,13.312798
destination charger,新発田市,Japan,37.945463,139.33096
destination charger,Florence,United States,34.8064934,-87.6782579
supercharger,St. Valentin,Austria,48.196679,14.526705
supercharger,Wiener Neustadt,Austria,47.804602,16.210543
destination charger,Boston,United States,42.352135,-71.068673
destination charger,Hood River,United States,45.7115478,-121.5526164
destination charger,Dammbach,Germany,49.838639,9.341379
destination charger,Pontiac,United States,42.621989,-83.284848
destination charger,Guadalajara,Mexico,20.653838,-103.391658
destination charger,Stuttgart,Germany,48.754717,9.087619
destination charger,Broome,Australia,-17.929188,122.212169
destination charger,Mechelen,Netherlands,50.794876,5.921583
destination charger,Munsingen,Germany,48.413148,9.494821
destination charger,Kelowna,Canada,49.8915172,-119.4969177
destination charger,Manchester,United Kingdom,53.466788,-2.294976
destination charger,Wels,Austria,48.159137,14.022716
supercharger,Berry,Australia,-34.808254,150.636711
destination charger,Bad Windsheim,Germany,49.514956,10.414359
destination charger,Kiawah Island,United States,32.601592,-80.092282
destination charger,Celle,Germany,52.620471,10.075588
destination charger,Wuerzburg,Germany,49.790479,9.930337
destination charger,Broadway,United Kingdom,52.045532,-1.839849
standard charger,恆春鎮,Taiwan,21.928774,120.739046
supercharger,Gardnerville,United States,38.696385,-119.548525
destination charger,Gordes,France,43.921658,5.193604
destination charger,Delnoslaskie,Poland,50.348314,16.779764
destination charger,Aptos,United States,36.9506523,-121.8769721
destination charger,New York,United States,40.798108,-73.968204
destination charger,New York,United States,40.797359,-73.968718
destination charger,Nashville,United States,36.1420023,-86.7013478
destination charger,內湖區,Taiwan,25.059192,121.589268
destination charger,Manhattan,United States,40.848358,-73.931743
destination charger,Kufstein,Austria,47.582541,12.172452
destination charger,Wentworth Point,Australia,-33.824818,151.077185
destination charger,Parsberg,Germany,49.160084,11.718483
destination charger,Markham,Canada,43.842888,-79.35528
destination charger,LaGrange,United States,32.99466,-85.02515
destination charger,Salt Lake City,United States,40.7639,-111.893096
destination charger,Alba,Italy,44.701007,8.03163
destination charger,Sulice ñ Hlubocinka,Czech Republic,49.937756,14.553195
destination charger,Invermere,Canada,50.512216,-115.993074
supercharger,Tordesillas,Spain,41.515993,-4.943107
destination charger,Bad Sachsa,Germany,51.59881,10.548958
destination charger,Dubai,United Arab Emirates,25.103176,55.172063
destination charger,Schmallenberg,Germany,51.172087,8.443496
destination charger,Weggis,Switzerland,47.02686,8.402165
destination charger,Kitzbuhel,Austria,47.444523,12.394645
destination charger,Capitola,United States,36.9697758,-121.9655326
supercharger,Angoulême,France,45.69444,0.178841
destination charger,Birmingham,United States,42.544777,-83.215811
destination charger,Myrtle Beach,United States,33.6718019,-78.9035179
supercharger,North York,Canada,43.775977,-79.344475
destination charger,Fremont,United States,37.483726,-121.939835
destination charger,Taluyers,France,45.639641,4.72231
destination charger,Manhattan,United States,40.852461,-73.934084
destination charger,Hannover,Germany,52.364325,9.747156
destination charger,Palavas Les Flots,France,43.526784,3.931615
destination charger,Charlottesville,United States,38.04846,-78.542075
supercharger,Quispamsis,Canada,45.417459,-65.94386
destination charger,Mountain View,United States,37.3894309,-122.0920614
destination charger,Vernon,Canada,50.18841,-119.388423
destination charger,Victoria,Canada,48.4222022,-123.3796262
supercharger,Fort Wayne,United States,41.138488,-85.163426
destination charger,Newmarket,United Kingdom,52.243055,0.404978
destination charger,Rhinebeck,United States,41.925679,-73.912666
destination charger,Cricqueboeuf,France,49.402615,0.142842
destination charger,Al Ain,United Arab Emirates,24.246242,55.716037
destination charger,Ascona,Switzerland,46.157634,8.76983
destination charger,San Diego,United States,32.709565,-117.159897
supercharger,Maple Creek,Canada,49.908293,-109.472434
destination charger,Chapel Hill,United States,35.911118,-79.060128
destination charger,Mollymook,Australia,-35.3397,150.47273
destination charger,Bright,Australia,-36.730046,146.956771
standard charger,Maleny,Australia,-26.761114,152.873675
destination charger,Austin,United States,30.475146,-97.801817
supercharger,Reston,United States,38.948668,-77.339832
destination charger,Austin,United States,43.68223,-92.98115
supercharger,Farmville,United States,37.271757,-78.401649
destination charger,Darien Center,United States,42.858354,-78.346881
supercharger,Warsaw,Poland,52.207854,21.029565
supercharger,Liezen,Austria,47.559299,14.252501
destination charger,Eildon,Australia,-37.211945,145.907617
destination charger,Bidarray,France,43.289603,-1.361926
destination charger,Euroa,Australia,-36.75913,145.565118
destination charger,Berlin,Germany,52.510243,13.375402
destination charger,Krakow,Poland,50.056425,19.930354
standard charger,Heiligenblut,Austria,47.074598,12.752074
supercharger,Hong Kong,"Hong Kong S.A.R., China",22.321232,114.209787
destination charger,San Miguel de Allende,Mexico,20.909562,-100.744863
destination charger,San Jose,United States,37.371136,-121.919431
standard charger,Henlow,United Kingdom,52.031714,-0.27668
destination charger,Schmallenberg,Germany,51.159387,8.341004
destination charger,Montemarcello di Ameglia,Italy,44.042616,9.9633
standard charger,Osnabrück,Germany,52.277317,8.041082
destination charger,Villeneuve-lès-Avignon,France,43.966285,4.788157
destination charger,San Diego,United States,32.760622,-117.165981
supercharger,Archamps,France,46.1369161,6.1243056
destination charger,Cangas de Onis,Spain,43.365785,-5.150729
destination charger,Washington,United States,38.92336,-77.072855
destination charger,Washington,United States,38.908429,-77.033132
destination charger,Kalispell,United States,48.199365,-114.315273
destination charger,Palo Alto,United States,37.418651,-122.135119
destination charger,Acton Park,Australia,-33.773489,115.366999
destination charger,Cangas del Narcea,Spain,43.195577,-6.543535
destination charger,Lorca,Spain,37.677944,-1.704149
destination charger,Telluride,United States,37.934854,-107.846334
supercharger,Kurashiki,Japan,34.578345,133.769448
destination charger,Grand Rapids,United States,47.213323,-93.52725
destination charger,"Carvoeiro, Lagoa",Portugal,37.093274,-8.455752
standard charger,Schiltigheim,France,48.611665,7.713546
destination charger,Newmarket,United Kingdom,52.25101,0.415356
destination charger,Düsseldorf,Germany,51.233083,6.778131
destination charger,Sale,Australia,-38.101784,147.065422
destination charger,Orkney Springs,United States,38.795476,-78.81805
standard charger,Pornichet,France,47.267263,-2.346421
destination charger,Atlanta,United States,33.843212,-84.37258
supercharger,Miami,United States,25.813933,-80.194551
destination charger,Sioux Falls,United States,43.52355,-96.779223
destination charger,Maria Rain,Austria,46.57251,14.291849
destination charger,Indiana,United States,40.611518,-79.160111
destination charger,Granada,Spain,37.176648,-3.612316
supercharger,Christchurch,New Zealand,-43.52642,172.628965
supercharger,Eurocentral,United Kingdom,55.835905,-3.984377
destination charger,Helen,United States,34.705966,-83.714718
supercharger,Hoorn,Netherlands,52.650769,5.038917
supercharger,Coquelles,France,50.924425,1.80414
supercharger,Bembibre,Spain,42.623488,-6.453124
destination charger,Toftlund,Denmark,55.193999,9.075816
destination charger,Verbier,Switzerland,46.103524,7.224201
supercharger,Appoigny,France,47.85229077,3.543402815
destination charger,Campeche,Mexico,19.847417,-90.538719
destination charger,西脇市,Japan,35.013606,134.961451
destination charger,Warren,United States,44.124163,-72.882596
standard charger,Cortina d'Ampezzo,Italy,46.540516,12.13506
destination charger,Santa Clara,United States,37.390939,-121.974647
destination charger,Donauwoerth,Germany,48.708852,10.758708
destination charger,Indian Wells,United States,33.723301,-116.329538
destination charger,Wagga Wagga,Australia,-35.158203,147.459458
destination charger,Niagara Falls,Canada,43.082512,-79.08323
destination charger,Chattanooga,United States,35.051119,-85.311229
destination charger,Palm Springs,United States,33.801901,-116.532388
destination charger,Blowing Rock,United States,36.133358,-81.676381
supercharger,Reocin,Spain,43.356526,-4.094394
supercharger,Normal,United States,40.508562,-88.984738
supercharger,Utica,United States,43.113878,-75.206857
standard charger,Marseillan,France,43.397178,3.547582
supercharger,Magliano Sabina,Italy,42.372085,12.471703
destination charger,Biloxi,United States,30.392769,-88.865965
destination charger,Särna,Sweden,61.693066,13.140651
destination charger,Valle de la Envía,Spain,36.836896,-2.618703
destination charger,Malaga,Spain,36.70023,-4.439113
destination charger,Aumühle,Germany,53.531187,10.333932
destination charger,Warner Robins,United States,32.6166443,-83.6990012
destination charger,Marija Bistrica,Croatia,46.002916,16.11757
destination charger,Ottrott,France,48.463278,7.423684
destination charger,Matrei in Osttirol,Austria,47.00135,12.538863
supercharger,Onalaska,United States,43.879042,-91.188428
destination charger,Emmelsbuell-Horsbuell,Germany,54.809781,8.700606
destination charger,Madrid,Spain,40.442883,-3.845569
supercharger,Ashorne,United Kingdom,52.21917,-1.501274
supercharger,Tokushima,Japan,34.200885,134.624305
destination charger,Westlake Village,United States,34.1550113,-118.8250613
destination charger,Hinterglemm,Austria,47.375942,12.546761
destination charger,Calgary,Canada,51.0446034,-114.0629409
destination charger,Moncarapacho,Portugal,37.098448,-7.793433
supercharger,Hohenwarsleben,Germany,52.174537,11.493001
destination charger,Hudson,United States,42.253092,-73.795964
supercharger,Macedonia,United States,41.31361465,-81.5171092
supercharger,Fleet,United Kingdom,51.296116,-0.857413
destination charger,San Antonio,United States,29.4606418,-98.6809713
destination charger,Norfolk,United States,36.853232,-76.291144
destination charger,Norfolk,United States,36.846568,-76.289277
destination charger,Davenport,United States,41.526829,-90.58126
destination charger,Saratoga Springs,United States,43.057279,-73.804334
destination charger,Melbourne,Australia,-37.816095,144.9547
destination charger,Werribee,Australia,-37.875247,144.679638
destination charger,North End,United Kingdom,51.37169,-1.417123
supercharger,Jersey City,United States,40.727344,-74.039834
standard charger,壽豐鄉,Taiwan,23.883113,121.601036
standard charger,士林區,Taiwan,25.093169,121.52924
destination charger,Red Hill,Australia,-38.372182,145.018678
destination charger,南あわじ市,Japan,34.271569,134.664471
supercharger,Worthington,United States,43.63385,-95.595647
destination charger,Nitra,Slovakia,48.304257,18.104978
destination charger,Worcester,United Kingdom,52.308466,-2.363561
destination charger,White Plains,United States,41.0288776,-73.7754206
destination charger,Greenwood,Canada,49.089364,-118.677421
destination charger,Seattle,United States,47.625675,-122.346886
destination charger,Christina Lake,Canada,49.0449413,-118.2065915
destination charger,Cuernavaca,Mexico,18.933436,-99.19729
supercharger,Udine,Italy,46.134423,13.186089
destination charger,Vienna,Austria,48.194043,16.389112
supercharger,Dettelbach,Germany,49.778588,10.068878
standard charger,羅東鎮,Taiwan,24.67351,121.774954
destination charger,Bathurst,Australia,-33.392689,149.518529
destination charger,Thunder Bay,Canada,48.432949,-89.218734
destination charger,池上鄉,Taiwan,23.122562,121.219818
destination charger,太平區,Taiwan,24.142882,120.711452
destination charger,Haro,Spain,42.584482,-2.846937
destination charger,Cuajimalpa de Morelos,Mexico,19.381156,-99.254927
destination charger,Diegem,Belgium,50.884094,4.448203
destination charger,Calistoga,United States,38.596348,-122.602268
supercharger,Lewes,United States,38.74431,-75.153308
destination charger,Congresbury,United Kingdom,51.381558,-2.806812
destination charger,Soldeu,Andorra,42.577525,1.664184
destination charger,Barcelona,Spain,41.439933,2.198663
destination charger,San Sebastian,Spain,43.309108,-1.943774
destination charger,Joucas,France,43.934766,5.242475
destination charger,Sydney,Australia,-33.889445,151.275218
destination charger,Edwardsville,United States,39.063122,-94.83369
destination charger,Cairns,Australia,-16.907545,145.760149
supercharger,서울,South Korea,37.570693,126.981511
destination charger,頭份市,Taiwan,24.690479,120.903259
destination charger,Park City,United States,40.6221159,-111.4909371
destination charger,Solbiate Olona,Italy,45.643897,8.867745
supercharger,Ussac,France,45.16724,1.483119
destination charger,Charleston,United States,32.780654,-79.932352
destination charger,魚池鄉,Taiwan,23.919342,120.918672
destination charger,Enniskerry,Ireland,53.185465,-6.180673
destination charger,淡水區,Taiwan,25.137959,121.461526
destination charger,Arjang,Sweden,59.360691,12.27853
destination charger,Scheffau am wilden Kaiser,Austria,47.528237,12.250041
destination charger,Rancho Mirage,United States,33.766815,-116.45826
destination charger,Hamburg,Germany,53.549518,9.988296
destination charger,Margaret River,Australia,-33.95918,115.069178
destination charger,Como,Italy,45.833852,9.070305
destination charger,Balgowlah,Australia,-33.793153,151.264116
supercharger,Chicago,United States,41.937552,-87.644709
destination charger,Zuidbroek,Netherlands,53.1701126,6.852452
standard charger,Nykvarn,Sweden,59.193807,17.445908
supercharger,Sormas,Hungary,46.460577,16.906868
destination charger,Tweed Heads,Australia,-28.176745,153.541284
destination charger,Hopfgarten,Austria,47.450026,12.158881
destination charger,Iden,United Kingdom,50.982048,0.730917
supercharger,Amesbury,United Kingdom,51.17715,-1.756453
destination charger,Wien,Austria,48.182327,16.38092
destination charger,Noain,Spain,42.764893,-1.633657
destination charger,Burg im Spreewald,Germany,51.843063,14.127003
supercharger,Lumberton,United States,34.667629,-79.002343
standard charger,池上鄉,Taiwan,23.125427,121.219652
destination charger,Alvaro Obregon,Mexico,19.367878,-99.259444
standard charger,大園區,Taiwan,25.061784,121.175735
destination charger,Fyresdal,Norway,59.31376,8.134286
destination charger,Riquewihr,France,48.165854,7.303626
standard charger,新城鄉,Taiwan,24.025704,121.632399
destination charger,Cherrybrook,Australia,-33.721145,151.04445
destination charger,St. Louis,United States,38.654741,-90.338636
destination charger,Tlalnepantla,Mexico,19.52477,-99.227632
destination charger,Ballyvaughan,Ireland,53.076748,-9.184173
destination charger,Sunny Isles Beach,United States,25.936585,-80.120749
destination charger,Marfa,United States,30.302371,-104.020604
supercharger,Sollentuna,Sweden,59.496498,17.924318
destination charger,Walla Walla,United States,46.0684299,-118.3302973
destination charger,Pembrokeshire,United Kingdom,51.809787,-5.101992
standard charger,仁愛鄉,Taiwan,24.036824,121.150654
destination charger,Bourke,Australia,-30.0882,145.933892
destination charger,Gamlitz,Austria,46.721539,15.558626
destination charger,Bairnsdale,Australia,-37.824451,147.633664
destination charger,St.Anton am Arlberg,Austria,47.135277,10.272765
destination charger,Lech am Arlberg,Austria,47.20936,10.140584
destination charger,Hestra,Sweden,57.418979,13.627295
destination charger,Wien,Austria,48.199564,16.338691
destination charger,Lyon,France,45.759139,4.823065
destination charger,Napier,New Zealand,-39.484379,176.89291
destination charger,Ljungskile,Sweden,58.206374,11.899062
destination charger,평창군 봉평면,South Korea,37.575825,128.333745
destination charger,Gilly-les-Citeaux,France,47.172293,4.981622
destination charger,Townshend,United States,43.099621,-72.7036059
destination charger,Kennebunkport,United States,43.3491695,-70.4729397
destination charger,Exeter,United States,42.9777294,-70.9542299
standard charger,Hong Kong,"Hong Kong S.A.R., China",22.309317,114.261974
standard charger,Hong Kong,"Hong Kong S.A.R., China",22.426186,114.233405
destination charger,Killarney,Ireland,52.067353,-9.573084
destination charger,Louisville,United States,38.2567817,-85.7617756
destination charger,Fernandina Beach,United States,30.66918,-81.458509
destination charger,Williamstown,United States,42.7052817,-73.1906598
destination charger,Crans-Montana,Switzerland,46.310373,7.483649
destination charger,Bratislava,Slovakia,48.16641,17.177419
supercharger,Grove City,United States,41.143856,-80.157427
destination charger,Chadds Ford,United States,39.8459468,-75.6321627
destination charger,Tiburon,United States,37.8748518,-122.4576151
destination charger,West Union,United States,38.8790229,-83.472163
supercharger,Harrisburg,United States,40.277134,-76.823255
destination charger,Blue Bell,United States,40.1806182,-75.2783716
destination charger,Monterey,United States,36.585678,-121.900656
supercharger,Valencia,United States,34.430977,-118.554099
destination charger,Dubai,United Arab Emirates,25.139261,55.142744
destination charger,Shingletown,United States,40.513221,-121.81233
destination charger,Tequisquiapan,Mexico,20.525996,-99.894589
supercharger,Trinidad,United States,37.134167,-104.519352
destination charger,Cocoa Beach,United States,28.338583,-80.607835
destination charger,Grindelwald,Switzerland,46.619033,8.005503
destination charger,Ensenada,Mexico,32.119874,-116.534579
destination charger,Ensenada,Mexico,32.094447,-116.58747
supercharger,Kokkola,Finland,63.829282,23.148487
destination charger,Jaen,Spain,37.767989,-3.801574
destination charger,Denver,United States,39.770729,-104.970505
supercharger,Lone Pine,United States,36.60059,-118.061916
supercharger,Perigueux,France,45.152424,0.789938
supercharger,Quinto,Switzerland,46.515263,8.67061
supercharger,Dryden,Canada,49.785605,-92.809966
destination charger,Perthshire,United Kingdom,56.283383,-3.75199
destination charger,Sitges,Spain,41.234847,1.804106
destination charger,Tänndalen,Sweden,62.573243,12.224928
destination charger,Stamford,United States,41.051309,-73.534701
supercharger,Cary,United States,35.84359,-78.886368
destination charger,Luxembourg,Luxembourg,49.602352,6.133357
destination charger,Montreux,Switzerland,46.438414,6.907093
destination charger,Alpbach,Austria,47.398589,11.94515
destination charger,Leongatha,Australia,-38.472058,145.947645
supercharger,Levis,Canada,46.730319,-71.26823
supercharger,Erwin,United States,42.170757,-77.108063
destination charger,Naples,United States,26.141588,-81.788079
destination charger,Naples,United States,26.139318,-81.782418
destination charger,Berlin,Germany,52.509837,13.346194
destination charger,Dania Beach,United States,26.050298,-80.160471
destination charger,Folgarida,Italy,46.304928,10.862434
destination charger,Terme di Saturnia,Italy,42.657462,11.514254
destination charger,Gorraiz,Spain,42.821776,-1.579254
destination charger,Zaragoza,Spain,41.638939,-0.908457
destination charger,Miguel Hidalgo,Mexico,19.437744,-99.206965
destination charger,Paris,France,48.854369,2.340142
destination charger,Naples,United States,26.212753,-81.746669
supercharger,Sheffield,United States,41.426978,-82.076353
destination charger,Laval,Canada,45.569033,-73.74622
destination charger,Wighill,United Kingdom,53.916342,-1.277242
destination charger,Muenchen,Germany,48.13772,11.555669
destination charger,Chipping Norton,United Kingdom,51.940126,-1.42165
destination charger,Hochsoelden,Austria,46.977315,10.985398
supercharger,Bloomington,United States,39.165311,-86.579114
destination charger,Hasselt,Belgium,50.934979,5.321142
standard charger,Merris,France,50.714336,2.667852
supercharger,Champaign,United States,40.146204,-88.259828
supercharger,Rosemont,United States,41.975263,-87.866046
standard charger,Pfastatt,France,47.761479,7.2999347
supercharger,Carpiano,Italy,45.34834,9.282206
destination charger,Lithonia,United States,33.700929,-84.099336
destination charger,San Jose,United States,37.330348,-121.888385
destination charger,Healdsburg,United States,38.610448,-122.871408
destination charger,Playa del Carmen,Mexico,20.646689,-87.056931
destination charger,Lyon,France,45.763168,4.825844
destination charger,Reno,United States,39.52788,-119.813754
destination charger,Pacific Grove,United States,36.6198213,-121.9328597
destination charger,Quebec City,Canada,46.7564906,-71.2937583
standard charger,Tournus,France,46.566291,4.907598
destination charger,Hinterriss,Austria,47.472983,11.467108
destination charger,Serfaus,Austria,47.03958,10.610199
destination charger,Thaleischweiler-Froeschen,Germany,49.29109,7.574413
destination charger,Gizycko,Poland,54.035583,21.760281
supercharger,Balikesir,Turkey,39.650623,27.889348
supercharger,Braintree,United States,42.223016,-71.022958
destination charger,San Diego,United States,32.874767,-117.208742
destination charger,Abu Dhabi,United Arab Emirates,24.465343,54.608897
destination charger,Napa,United States,38.406448,-122.328279
destination charger,Socorro,United States,34.071474,-106.892579
destination charger,Gulfport,United States,30.363355,-89.10408
destination charger,Norfolk,United States,36.914545,-76.247689
destination charger,Stamford,United States,41.045489,-73.543171
destination charger,Nr Derby,United Kingdom,52.824899,-1.386217
destination charger,Hossegor,France,43.657922,-1.426269
destination charger,Castelldefels,Spain,41.281867,1.986067
destination charger,Saint-Malo,France,48.657875,-1.999489
supercharger,Grong,Norway,64.464757,12.316403
destination charger,Zürich,Switzerland,47.372536,8.574303
destination charger,Yvré-l'Évêque,France,48.041622,0.302765
destination charger,Nuits-Saint-Georges,France,47.145443,4.928141
destination charger,"Costa d'en Blanes, Islas Baleares",Spain,39.527597,2.552744
supercharger,Howard,United States,44.53628,-88.077716
destination charger,Gargnano,Italy,45.687284,10.642702
destination charger,Verona,Italy,45.43906,10.989969
destination charger,Milano,Italy,45.470092,9.189372
destination charger,Townsend,United States,35.678761,-83.782354
destination charger,Créon,France,44.771514,-0.336297
destination charger,Aschau,Germany,47.779067,12.321552
destination charger,Playa del Carmen,Mexico,20.688459,-87.01994
supercharger,Monroe,United States,32.496455,-92.055059
supercharger,"Ribeira de Pena, Vila Real District",Portugal,41.503392,-7.80134
supercharger,Paterna,Spain,39.542965,-0.451521
destination charger,Newmarket,United Kingdom,52.243366,0.405848
supercharger,Gold Coast,Australia,-28.035361,153.427306
destination charger,Zephyr Cove,United States,38.983915,-119.943181
destination charger,Estes Park,United States,40.390787,-105.562663
destination charger,Malmedy,Belgium,50.412583,6.057064
destination charger,Hemet,United States,33.735562,-117.030779
destination charger,Choszczno,Poland,53.135152,15.475381
destination charger,Garmisch-Partenkirchen,Germany,47.479822,11.080188
destination charger,Besenova,Slovakia,49.099612,19.444764
destination charger,Barcelona,Spain,41.392123,2.157059
destination charger,Park City,United States,40.725431,-111.541908
destination charger,Richmond,United States,37.530918,-77.358861
destination charger,Tobermory,Canada,45.254316,-81.662421
destination charger,Ramberg,Norway,68.021352,13.18357
supercharger,Rapid City,United States,44.105601,-103.212569
destination charger,Rodern,France,48.224809,7.353948
destination charger,사하구,South Korea,35.081845,128.97374
destination charger,Dayton,United States,46.31017,-117.99763
destination charger,Nice,France,43.698955,7.260086
destination charger,Emeryville,United States,37.83963,-122.292879
destination charger,Port Huron,United States,42.993454,-82.453042
standard charger,Brixen,Italy,46.67596,11.710052
destination charger,Vahrn,Italy,46.734464,11.647021
destination charger,Painted Post,United States,42.1501094,-77.1086922
destination charger,Binghamton,United States,42.1305299,-75.9054211
supercharger,Big Sky,United States,45.260742,-111.306047
destination charger,Amsterdam,Netherlands,52.357282,4.855383
destination charger,Chocholow,Poland,49.3517902,19.8209238
destination charger,Rogoznica,Croatia,43.5320192,15.9589793
destination charger,Seiersberg,Austria,47.012638,15.410189
destination charger,Dawsonville,United States,34.409563,-84.04335
destination charger,Gréoux-les-Bains,France,43.7578,5.897551
destination charger,Göteborg,Sweden,57.691701,11.909282
supercharger,Winnipeg,Canada,49.8821,-97.197283
supercharger,Portland,United States,43.664439,-70.269546
destination charger,Ensenada,Mexico,32.025988,-116.615217
destination charger,Gulfport,United States,27.740316,-82.708163
destination charger,Bradenton Beach,United States,27.472848,-82.700697
supercharger,Cambridge,Canada,43.408785,-80.325434
destination charger,Orange,Australia,-33.259963,149.004161
destination charger,CRANS-MONTANA,Switzerland,46.30765,7.46033
destination charger,Aurora,United States,41.7458905,-88.2479397
destination charger,West Chicago,United States,41.9224259,-88.2073922
supercharger,Walker,United States,43.018222,-85.723981
destination charger,Seattle,United States,47.610845,-122.347258
supercharger,Chicago,United States,41.869126,-87.639971
destination charger,Middleburg,United States,38.9812175,-77.6582443
destination charger,Hanwood,Australia,-34.340755,146.058633
destination charger,黒部市,Japan,36.8180035,137.5815367
supercharger,Burley,United States,42.561599,-113.790259
destination charger,Crépon,France,49.31164,-0.54731
destination charger,Eatons Hill,Australia,-27.337733,152.927496
supercharger,屏東,Taiwan,22.243673,120.663738
destination charger,Torremolinos,Spain,36.632292,-4.492533
supercharger,Schaan,Liechtenstein,47.165186,9.507766
destination charger,Munster,France,48.04053,7.142455
destination charger,"Island Beach, Kangaroo Island",Australia,-35.797889,137.803611
destination charger,Roanoke,United States,40.961898,-85.373626
destination charger,磐田市,Japan,34.751047,137.84282
destination charger,下田市,Japan,34.6773838,138.9719247
destination charger,Bronx,United States,40.878532,-73.916201
destination charger,Lane Cove,Australia,-33.81375,151.168778
destination charger,Lyngen,Norway,69.881551,20.694877
destination charger,Ramatuelle,France,43.238573,6.659779
supercharger,Ontario,United States,34.066251,-117.650079
destination charger,Amman,Jordan,31.955856,35.909974
destination charger,Scott,Canada,46.506793,-71.055195
destination charger,Coyoacan,Mexico,19.342994,-99.149345
destination charger,대전광역시,South Korea,36.4526724,127.4242222
standard charger,Rønde,Denmark,56.292278,10.444698
destination charger,Capolona,Italy,43.589703,11.869266
destination charger,Ålesund,Norway,62.469574,6.198118
destination charger,Destin,United States,30.394647,-86.511705
destination charger,Montagny Les Beaune,France,46.992887,4.847125
destination charger,Austin,United States,30.251446,-97.74933
destination charger,Christchurch,New Zealand,-43.52647242,172.6344826
standard charger,Pritzwalk,Germany,53.163213,12.129135
destination charger,Atlanta,United States,33.928401,-84.356541
destination charger,Åmotfors,Sweden,59.820566,12.332045
destination charger,Colima,Mexico,19.259753,-103.689252
destination charger,Le Lavandou,France,43.151164,6.434956
standard charger,Chamonix-Mont-Blanc,France,45.919836,6.868449
destination charger,Vellinge,Sweden,55.439736,13.032048
destination charger,Neukirchen,Germany,48.974512,12.754079
destination charger,San Candido,Italy,46.730489,12.230035
destination charger,Bristol,United Kingdom,51.3767,-2.725675
destination charger,Seattle,United States,47.608043,-122.334072
destination charger,New Orleans,United States,29.949579,-90.066291
destination charger,Narvik,Norway,68.431012,17.425998
supercharger,Lifton,United Kingdom,50.643682,-4.284655
destination charger,Hamburg,Germany,53.597183,9.919515
destination charger,Queretaro,Mexico,20.584922,-100.38107
destination charger,Monterrey,Mexico,25.637913,-100.31443
supercharger,Pocatello,United States,42.899615,-112.435248
destination charger,Ratmerice,Czech Republic,49.644403,14.758502
destination charger,Cordon,France,45.91613,6.607738
destination charger,Shanghai,China,31.081567,121.265536
standard charger,Prestovice,Czech Republic,49.296619,13.989202
destination charger,Illhaeusern,France,48.18351,7.43239
destination charger,Jinan,China,36.68241,117.125019
destination charger,Suzhou City,China,31.069923,120.362346
destination charger,Atlanta,United States,33.847158,-84.373871
destination charger,Haruru falls,New Zealand,-35.282729,174.04639
destination charger,Sowayma,Jordan,31.715335,35.58619
destination charger,Whyalla,Australia,-33.034758,137.562782
destination charger,Springfield,United States,37.136222,-93.251613
supercharger,New York,United States,40.780976,-73.980414
destination charger,Sowayma,Jordan,31.718667,35.586902
destination charger,Toronto,Canada,43.640202,-79.382062
destination charger,Stapylton,Australia,-27.726831,153.244796
standard charger,Riccione,Italy,43.998027,12.668489
destination charger,San Sebastian,Spain,43.32158,-1.980658
destination charger,Dublin,United States,32.486795,-82.937445
destination charger,Gardner,United States,38.809367,-94.889966
destination charger,Jinhua,China,29.029015,119.16664
destination charger,Columbus,United States,39.964096,-82.999809
standard charger,Hong Kong,"Hong Kong S.A.R., China",22.300565,114.172485
destination charger,Sainte-Agathe-des-Monts,Canada,46.044646,-74.271063
destination charger,Marano sul Panaro,Italy,44.468336,10.939675
destination charger,Rotterdam,Netherlands,51.947716,4.436052
destination charger,Big Sky,United States,45.283183,-111.400487
destination charger,Söll,Austria,47.50286,12.190232
destination charger,Hannover,Germany,52.328831,9.776066
destination charger,Salzburg,Austria,47.332618,13.301255
destination charger,Wien,Austria,48.182302,16.378192
destination charger,Minnetonka,United States,44.973207,-93.414931
destination charger,Roseville,United States,45.022644,-93.193257
destination charger,Newport Beach,United States,33.616574,-117.929906
destination charger,Oxford,United States,34.368889,-89.517896
destination charger,Jinhua,China,29.300692,120.084708
destination charger,Fort Myers,United States,26.599115,-81.844739
destination charger,Los Angeles,United States,34.04385,-118.257712
standard charger,Ghisonaccia,France,42.006755,9.455098
destination charger,Shangrao City,China,28.687363,118.237906
destination charger,Chongqing,China,29.856403,106.380331
destination charger,愛知県,Japan,35.237969,136.920231
destination charger,Abu Dhabi,United Arab Emirates,24.491042,54.599406
destination charger,Strahan,Australia,-42.15219,145.32987
destination charger,Andalo,Italy,46.164758,11.002642
destination charger,Ettlingen,Germany,48.941527,8.404798
destination charger,Malmö,Sweden,55.605848,12.997983
destination charger,Zhanjiang,China,21.23331,110.396319
destination charger,Saint-Eustache,Canada,45.581242,-73.882885
destination charger,Plano,United States,33.062756,-96.831498
destination charger,Shoreview,United States,45.060663,-93.144428
destination charger,Vincennes,France,48.845242,2.432599
standard charger,Paris,France,48.859894,2.403268
standard charger,Ostseebad Boltenhagen,Germany,53.3560842,12.729485
destination charger,Brunswick Heads,Australia,-28.5397768,153.5522429
destination charger,Liège,Belgium,50.644982,5.567703
destination charger,Porto,Portugal,41.16011,-8.640495
destination charger,La Motte en Provence,France,43.511154,6.569723
destination charger,Ciudad Juarez,Mexico,31.736807,-106.450756
destination charger,Vipiteno,Italy,46.890135,11.430344
supercharger,Gallup,United States,35.505278,-108.828094
destination charger,Otterndorf,Germany,53.823009,8.895294
destination charger,Neuwied,Germany,50.423065,7.543652
destination charger,Monterrey,Mexico,25.667356,-100.37935
destination charger,Bozen,Italy,46.490876,11.394607
destination charger,Collingwood,New Zealand,-40.594728,172.529382
destination charger,Montano Lucino,Italy,45.783041,9.04863
destination charger,Sanremo,Italy,43.80242,7.745377
destination charger,Birmingham,United States,33.436913,-86.734917
destination charger,Lenox,United States,42.354931,-73.281108
destination charger,Moelln,Germany,53.632342,10.724284
destination charger,Aachen,Germany,50.779496,6.08863
destination charger,Namur,Belgium,50.463896,4.871049
destination charger,Starkville,United States,33.45859,-88.800423
destination charger,Calonge,Spain,41.84603,3.070962
destination charger,Blowing Rock,United States,36.131495,-81.67785
standard charger,Lifton,United Kingdom,50.643243,-4.284137
destination charger,Miguel Hidalgo,Mexico,19.427732,-99.20395
standard charger,Hong Kong,"Hong Kong S.A.R., China",22.2989299,114.177942
destination charger,Orange Beach,United States,30.26494,-87.603084
destination charger,Kenmore,United Kingdom,56.579129,-4.003527
destination charger,大園區,Taiwan,25.059958,121.209754
destination charger,Sept-Iles,Canada,50.217648,-66.380342
destination charger,Los Alamos,United States,34.743791,-120.276887
destination charger,Kingsport,United States,36.506546,-82.568279
destination charger,Calistoga,United States,38.579277,-122.577206
destination charger,Shinnston,United States,39.396087,-80.302112
destination charger,Rimouski,Canada,48.455655,-68.52332
standard charger,Hong Kong,"Hong Kong S.A.R., China",22.323,114.171981
destination charger,Healdsburg,United States,38.577291,-122.876575
supercharger,Mt. Hope,United States,37.846831,-81.196008
supercharger,Keith,Australia,-36.099082,140.355645
destination charger,Paso Robles,United States,35.59766,-120.564938
destination charger,Mettmann,Germany,51.234912,6.947968
destination charger,Vichy,France,46.125438,3.417225
supercharger,Mougins,France,43.603659,7.011155
destination charger,Preston,United Kingdom,53.757734,-2.697432
destination charger,Scuol,Switzerland,46.797256,10.298954
destination charger,Dayton,United States,39.706684,-84.169928
destination charger,Provo,United States,40.234985,-111.6607
destination charger,Bad Häring,Austria,47.514702,12.109403
destination charger,Reading,United Kingdom,51.40864,-0.954065
destination charger,Summit Point,United States,39.241628,-77.979896
destination charger,West Palm Beach,United States,26.700225,-80.05789
destination charger,Wisconsin Dells,United States,43.6221114,-89.7950775
destination charger,Magnor,Norway,59.933734,12.228313
destination charger,Oberstdorf,Germany,47.404062,10.278702
destination charger,Guadalajara,Mexico,20.702259,-103.3764
destination charger,Deer Park,United States,29.695175,-95.125098
destination charger,Whangarei,New Zealand,-35.724296,174.320149
supercharger,Richmond,United States,37.52979,-77.353906
destination charger,Van Nuys,United States,34.2005566,-118.4872569
destination charger,Vaalimaa,Finland,60.603507,27.833809
destination charger,西伯郡,Japan,35.374441,133.516682
destination charger,Sioux Falls,United States,43.490554,-96.770543
destination charger,Palo Alto,United States,37.405664,-122.118794
supercharger,Saintes,France,45.750012,-0.661725
destination charger,Pearland,United States,29.579073,-95.383683
supercharger,Vierumäki,Finland,61.111599,25.928814
destination charger,San Lorenzo di Sebato,Italy,46.787256,11.891237
destination charger,Tuepi,Croatia,43.273486,17.045267
destination charger,Kasnäs,Finland,59.922089,22.409537
destination charger,Storebø,Norway,60.096049,5.225225
supercharger,Sunnyvale,United States,37.37339,-122.032893
destination charger,Alpine,United States,32.843397,-116.705637
supercharger,Mojave,United States,35.068595,-118.174576
destination charger,Floyd,United States,36.910456,-80.31744
destination charger,Healdsburg,United States,38.659382,-122.885417
destination charger,Manhattan Beach,United States,33.90027,-118.388495
supercharger,New York City,United States,40.527032,-74.231204
destination charger,Valréas,France,44.374708,4.994782
destination charger,Decatur,United States,39.81597,-88.879021
destination charger,Naramata,Canada,49.60157,-119.59738
destination charger,Wells,United States,43.301006,-70.568864
standard charger,Szklarska Poręba,Poland,50.818468,15.527284
destination charger,West Baden Springs,United States,38.568215,-86.618299
destination charger,Milano,Italy,45.485536,9.164251
destination charger,Ensenada,Mexico,31.775523,-116.615646
destination charger,Hampstead,United States,39.62023,-76.856198
supercharger,Miner,United States,36.893583,-89.533986
supercharger,Urvillers,France,49.787019,3.335626
destination charger,Irapuato,Mexico,20.689881,-101.410253
destination charger,南港區,Taiwan,25.052198,121.603526
destination charger,Omaha,United States,41.3228632,-96.0717289
destination charger,Porto,Portugal,41.155261,-8.628794
destination charger,Eppan,Italy,46.418736,11.283023
destination charger,Bee Cave,United States,30.309487,-97.935413
supercharger,Adda Nord,Italy,45.511492,9.634821
supercharger,Nagano,Japan,36.572115,138.200325
destination charger,Sainte-Adele,Canada,45.918861,-74.159141
destination charger,Helena,United States,46.611568,-112.020013
destination charger,Marshall,United States,32.495518,-94.357031
destination charger,Howlong,Australia,-35.98433,146.642531
destination charger,Myponga,Australia,-35.391431,138.463288
destination charger,Porepunkah,Australia,-36.675301,146.888984
destination charger,Crans-Montana,Switzerland,46.312129,7.477509
destination charger,Richmond,Australia,-37.819623,145.013029
destination charger,Comstock Park,United States,43.059409,-85.641052
destination charger,Mont Tremblant,Canada,46.172971,-74.597173
destination charger,La Quinta,United States,33.665933,-116.263705
destination charger,Kaprun,Austria,47.269641,12.755614
supercharger,Reno,United States,39.489732,-119.794179
supercharger,Cadillac,United States,44.28254,-85.40306
destination charger,茨城県,Japan,36.230712,140.533397
destination charger,Bay Harbor,United States,45.368997,-85.015696
destination charger,Bruchhausen-Vilsen,Germany,52.803505,8.992734
destination charger,Bardolino,Italy,45.535106,10.729268
supercharger,North Canaan,United States,42.024304,-73.322776
destination charger,Houston,United States,29.803571,-95.162314
destination charger,Strongoli,Italy,39.266198,17.081977
destination charger,Muskogee,United States,35.74748,-95.370647
destination charger,Versailles,United States,38.0919517,-84.7882113
destination charger,Cordele,United States,31.960712,-83.7502152
destination charger,Soissons,France,49.375175,3.321744
destination charger,Partschins,Italy,46.674406,11.062121
destination charger,Bristol,United Kingdom,51.381069,-2.808293
destination charger,Las Vegas,United States,36.139946,-115.15228
destination charger,New York,United States,40.721437,-74.001238
supercharger,Bussigny,Switzerland,46.555642,6.561004
destination charger,Waldachtal,Germany,48.483235,8.604307
destination charger,Alcobendas,Spain,40.519275,-3.656531
destination charger,Naples,United States,26.251464,-81.8208
supercharger,Hernes,Norway,60.932103,11.675676
destination charger,Rodeo,United States,31.870339,-109.034849
destination charger,Kwilcz,Poland,52.577053,16.004814
destination charger,Fulton,United States,38.504217,-122.770179
destination charger,Lodi,United States,38.1462792,-121.3071982
destination charger,Krokkleiva,Norway,60.06277,10.310288
destination charger,Reno,United States,39.502036,-119.763713
destination charger,Peak Hill,Australia,-32.721249,148.190814
destination charger,Queretaro,Mexico,20.682748,-100.435844
destination charger,Burgebrach,Germany,49.804819,10.732594
destination charger,Bathurst,Australia,-33.418442,149.582859
supercharger,Corte Madera,United States,37.928225,-122.514787
destination charger,員林市,Taiwan,23.932426,120.620369
destination charger,Birmingham,United States,33.437067,-86.729803
supercharger,St. Charles,United States,38.78216,-90.5329
destination charger,London,Canada,42.966456,-81.285532
destination charger,Serfaus,Austria,47.038318,10.608458
supercharger,Richmond,Canada,49.169479,-123.138016
destination charger,仁武區,Taiwan,22.704364,120.324266
destination charger,Croyde,United Kingdom,51.129246,-4.225431
destination charger,楊梅區,Taiwan,24.887258,121.16078
destination charger,Honfleur,France,49.424147,0.216856
destination charger,Thornham,United Kingdom,52.95919,0.573176
supercharger,Bothell,United States,47.767687,-122.191482
destination charger,Seattle,United States,47.661869,-122.315415
destination charger,Osoyoos,Canada,49.0159475,-119.4906618
destination charger,Texingtal,Austria,48.025164,15.278709
destination charger,Cellers,Spain,42.068985,0.883274
destination charger,Petaluma,United States,38.230988,-122.612703
supercharger,McComb,United States,31.248212,-90.471308
supercharger,Dayton,United States,39.858702,-84.277027
destination charger,Kössen,Austria,47.65126,12.337892
destination charger,Moltrasio,Italy,45.859865,9.101253
supercharger,La Seu d'Urgell,Spain,42.358932,1.462817
standard charger,Arosa,Switzerland,46.777148,9.678889
standard charger,Davos Platz,Switzerland,46.793107,9.817729
destination charger,Nordheim,Germany,49.859743,10.18368
destination charger,Newton,United States,35.662822,-81.223768
destination charger,Trois-Rivières,Canada,46.343075,-72.545348
supercharger,West Springfield,United States,42.130914,-72.621435
destination charger,Maple Creek,Canada,49.908993,-109.47965
standard charger,壽豐鄉,Taiwan,23.861602,121.502785
destination charger,Upsala,Canada,49.041361,-90.468889
destination charger,North Bay,Canada,46.329763,-79.489859
supercharger,Hanover,United States,39.153255,-76.74378
destination charger,New York,United States,40.800793,-73.9371
standard charger,Grindelwald,Switzerland,46.624049,8.041777
standard charger,Harrogate,United Kingdom,53.973773,-1.492644
destination charger,Hampshire,United Kingdom,51.291671,-0.983266
supercharger,Egerkingen,Switzerland,47.3265235,7.8048088
standard charger,Cagnano,France,42.874229,9.472454
destination charger,San Sebastian,Spain,43.307583,-1.978262
destination charger,Madrid,Spain,40.415024,-3.698171
destination charger,Seattle,United States,47.610142,-122.331887
destination charger,Rock Hill,United States,34.984879,-80.973734
destination charger,Sirmione,Italy,45.486089,10.609497
destination charger,Huntington Beach,United States,33.6511516,-117.990526
destination charger,Cascais,Portugal,38.701949,-9.457613
destination charger,Almancil,Portugal,37.038654,-8.011113
destination charger,中山區,Taiwan,25.080915,121.561706
destination charger,Epernay,France,49.042239,3.964459
destination charger,Montreal,Canada,45.4928052,-73.5570462
supercharger,Squamish,Canada,49.7369,-123.1346
destination charger,Idre,Sweden,61.887069,12.83647
destination charger,Melbourne,Australia,-37.813325,144.968236
destination charger,Houston,United States,29.688453,-95.419609
destination charger,Løkken,Denmark,57.331402,9.679009
destination charger,Plymouth,United States,38.53681,-120.792722
destination charger,Moab,United States,38.575547,-109.550033
destination charger,Karlsruhe,Germany,49.009556,8.386315
destination charger,北海道,Japan,42.323919,142.556267
destination charger,Ornans,France,47.100648,6.160382
destination charger,Baulkham Hills,Australia,-33.762528,151.004472
destination charger,"Queenstown Gardens, Otago",New Zealand,-45.037164,168.661605
destination charger,Cannon Beach,United States,45.890564,-123.962875
destination charger,제주시,South Korea,33.4540173,126.5721517
destination charger,Main Ridge,Australia,-38.394317,144.994243
destination charger,Amarillo,United States,35.190964,-101.931012
standard charger,Hong Kong,"Hong Kong S.A.R., China",22.251074,114.149836
destination charger,鹿港鎮,Taiwan,24.063851,120.437113
destination charger,Melrose,Australia,-32.825536,138.190257
destination charger,Notre-Dame-du-Portage,Canada,47.768469,-69.609635
destination charger,Columbus,United States,39.971151,-83.002496
destination charger,Belmont,United States,35.241715,-81.037882
destination charger,Madrid,Spain,40.455272,-3.694315
destination charger,Cascante,Spain,42.008539,-1.663785
standard charger,Krems an der Donau,Austria,48.412602,15.606501
destination charger,Coffs Harbour,Australia,-30.286092,153.136515
destination charger,Dayton,United States,39.8440187,-84.1956172
destination charger,Mira,Italy,45.437786,12.137098
destination charger,El Paso,United States,31.787438,-106.408404
destination charger,Salins les Bains,France,46.939598,5.877767
standard charger,Brissago,Switzerland,46.120288,8.712392
destination charger,Cesenatico,Italy,44.200129,12.405725
standard charger,恆春鎮,Taiwan,21.981888,120.729047
destination charger,Lido di Camaiore,Italy,43.895498,10.22399
destination charger,Söderköping,Sweden,58.479311,16.330721
destination charger,Soprabolzano,Italy,46.514462,11.38131
destination charger,Drummoyne,Australia,-33.855417,151.162747
destination charger,Moonee Ponds,Australia,-37.765818,144.923074
supercharger,Bakersfield,United States,35.354643,-119.331607
destination charger,Stanhope Gardens,Australia,-33.718791,150.92067
destination charger,North Sydney,Australia,-33.840843,151.207258
destination charger,Oceans Beach,New Zealand,-41.371604,175.07078
destination charger,Grand Canyon,United States,36.055666,-112.11877
destination charger,Caronport,Canada,50.453849,-105.813622
destination charger,Dresden,Germany,51.042564,13.735285
destination charger,Les Baux de Provence,France,43.735417,4.783636
destination charger,Arklow,Ireland,52.832139,-6.234859
destination charger,Naples,United States,26.15593,-81.685204
destination charger,Lech,Austria,47.210093,10.138742
destination charger,三星鄉,Taiwan,24.673294,121.721783
destination charger,Hochgurgl,Austria,46.900929,11.05116
destination charger,Gimo,Sweden,60.179124,18.173349
destination charger,Fiss,Austria,47.055623,10.617358
destination charger,Chamonix-Mont-Blanc,France,45.925162,6.873495
destination charger,Campo Tures,Italy,46.921255,11.952888
standard charger,Wellington,New Zealand,-41.28489,174.775315
destination charger,Davenport,United States,28.323712,-81.658565
